[{"id": 2124, "id_tei": "mohjo", "name": "Mohicken John", "state": "Ohio", "latitude": "", "longitude": "", "notes": "", "place_type": "GN", "alternate": ""}, {"id": 2123, "id_tei": "uppcanada", "name": "Upper Canada", "state": "", "latitude": "", "longitude": "", "notes": "", "place_type": "PN", "alternate": ""}, {"id": 2122, "id_tei": "ghent", "name": "Ghent", "state": "", "latitude": "", "longitude": "", "notes": "", "place_type": "PN", "alternate": ""}, {"id": 2121, "id_tei": "croval1", "name": "Croton Valley", "state": "New York", "latitude": "", "longitude": "", "notes": "", "place_type": "PN", "alternate": ""}, {"id": 2120, "id_tei": "plai", "name": "plainfield", "state": "New Jersey", "latitude": "", "longitude": "", "notes": "", "place_type": "PN", "alternate": ""}, {"id": 2119, "id_tei": "passaic", "name": "passaic", "state": "New Jersey", "latitude": "", "longitude": "", "notes": "", "place_type": "PN", "alternate": ""}, {"id": 2118, "id_tei": "lycom3", "name": "Lycoming Creek ", "state": "", "latitude": "", "longitude": "", "notes": "", "place_type": "PN", "alternate": ""}, {"id": 2117, "id_tei": "zanev", "name": "Zane's Ville", "state": "", "latitude": "", "longitude": "", "notes": "", "place_type": "PN", "alternate": ""}, {"id": 2116, "id_tei": "youngs", "name": "Young Streit", "state": "", "latitude": "", "longitude": "", "notes": "", "place_type": "PN", "alternate": ""}, {"id": 2115, "id_tei": "yough", "name": "Youghiogheny River", "state": "Pennsylvania", "latitude": "40.32227", "longitude": "79.84194", "notes": "134 miles long from Silver Lake to Monongahela River near McKeesport, PA", "place_type": "GN", "alternate": "Yoghagena, Yoghogany, Youghiogany"}, {"id": 2114, "id_tei": "yorkt", "name": "Yorktown", "state": "Pennsylvania", "latitude": "39.973446", "longitude": "75.153", "notes": "", "place_type": "PN", "alternate": "York Town, York"}, {"id": 2113, "id_tei": "yorks", "name": "Yorkshire", "state": "England", "latitude": "", "longitude": "", "notes": "", "place_type": "PN", "alternate": ""}, {"id": 2112, "id_tei": "yorki", "name": "York Island", "state": "", "latitude": "", "longitude": "", "notes": "", "place_type": "PN", "alternate": ""}, {"id": 2111, "id_tei": "york", "name": "York", "state": "New York", "latitude": "42.87107", "longitude": "77.88562", "notes": "", "place_type": "PN", "alternate": ""}, {"id": 2110, "id_tei": "york2", "name": "York", "state": "England", "latitude": "", "longitude": "", "notes": "", "place_type": "PN", "alternate": ""}, {"id": 2109, "id_tei": "yello", "name": "Yellow Breeches Creek", "state": "Pennsylvania", "latitude": "40.15058", "longitude": "77.00696", "notes": "56 miles long from Michaux State Forest to Susquehanna River near New Cumberland.", "place_type": "GN", "alternate": "Minnimingo Creek"}, {"id": 2108, "id_tei": "wrigt", "name": "Wrightstown", "state": "Pennsylvania", "latitude": "40.266774", "longitude": "74.98322", "notes": "", "place_type": "PN", "alternate": ""}, {"id": 2107, "id_tei": "wrigh", "name": "Wright's Ferry", "state": "Pennsylvania", "latitude": "40.03737", "longitude": "76.51441", "notes": "", "place_type": "PN", "alternate": ""}, {"id": 2106, "id_tei": "woodsi", "name": "Woodside", "state": "Pennsylvania", "latitude": "", "longitude": "", "notes": "near Merion", "place_type": "PN", "alternate": ""}, {"id": 2105, "id_tei": "woods", "name": "Woodstack", "state": "", "latitude": "", "longitude": "", "notes": "", "place_type": "PN", "alternate": ""}, {"id": 2104, "id_tei": "woodc", "name": "Wood Creek", "state": "New York", "latitude": "", "longitude": "", "notes": "", "place_type": "GN", "alternate": ""}, {"id": 2103, "id_tei": "woodb", "name": "Woodbury", "state": "New Jersey", "latitude": "39.83817", "longitude": "75.15268", "notes": "", "place_type": "PN", "alternate": ""}, {"id": 2102, "id_tei": "woakp", "name": "White Oak Plains", "state": "", "latitude": "", "longitude": "", "notes": "", "place_type": "GN", "alternate": ""}, {"id": 2101, "id_tei": "wisco", "name": "Wisconsin River", "state": "", "latitude": "", "longitude": "", "notes": "", "place_type": "GN", "alternate": "Oisconsin River"}, {"id": 2100, "id_tei": "winnel", "name": "Winnebago Lake", "state": "Wisconsin", "latitude": "", "longitude": "", "notes": "", "place_type": "PN", "alternate": ""}, {"id": 2099, "id_tei": "windr", "name": "Winding Ridge", "state": "", "latitude": "", "longitude": "", "notes": "", "place_type": "GN", "alternate": ""}, {"id": 2098, "id_tei": "wind1", "name": "Windecker", "state": "", "latitude": "", "longitude": "", "notes": "", "place_type": "PN", "alternate": ""}, {"id": 2097, "id_tei": "winch", "name": "Winchester", "state": "Virginia", "latitude": "", "longitude": "", "notes": "", "place_type": "PN", "alternate": ""}, {"id": 2096, "id_tei": "wilm", "name": "Wilmington", "state": "Ohio", "latitude": "", "longitude": "", "notes": "", "place_type": "PN", "alternate": ""}, {"id": 2095, "id_tei": "willst", "name": "Willstown", "state": "", "latitude": "", "longitude": "", "notes": "", "place_type": "PN", "alternate": ""}, {"id": 2094, "id_tei": "wilmo", "name": "Wills' Mountain", "state": "Pennsylvania", "latitude": "39.84611", "longitude": "78.68194", "notes": "", "place_type": "GN", "alternate": ""}, {"id": 2093, "id_tei": "wilmi", "name": "Wilmington", "state": "Delaware", "latitude": "39.73907", "longitude": "75.5398", "notes": "", "place_type": "PN", "alternate": ""}, {"id": 2092, "id_tei": "willm", "name": "Willistown Meeting", "state": "Pennsylvania", "latitude": "39.9887", "longitude": "75.48105", "notes": "", "place_type": "PN", "alternate": ""}, {"id": 2091, "id_tei": "willif", "name": "Williamsburgh Farm", "state": "", "latitude": "", "longitude": "", "notes": "", "place_type": "PN", "alternate": ""}, {"id": 2090, "id_tei": "willi2", "name": "Williamsport", "state": "Pennsylvania", "latitude": "41.24119", "longitude": "77.00108", "notes": "", "place_type": "PN", "alternate": "William's port"}, {"id": 2089, "id_tei": "willi", "name": "Williamsburgh", "state": "New York", "latitude": "40.70812", "longitude": "73.9571", "notes": "", "place_type": "PN", "alternate": "Williamsburg"}, {"id": 2088, "id_tei": "willc", "name": "Will's Creek", "state": "", "latitude": "", "longitude": "", "notes": "", "place_type": "PN", "alternate": ""}, {"id": 2087, "id_tei": "wicon", "name": "Wiconisco Creek", "state": "Pennsylvania", "latitude": "40.56256", "longitude": "76.80706", "notes": "46 miles long from Porter Township, PA to Susqehanna River between Lenkerville and Millersburg, PA.", "place_type": "GN", "alternate": "Wikinisky Creek"}, {"id": 2086, "id_tei": "whiti", "name": "Whitewood Island", "state": "", "latitude": "", "longitude": "", "notes": "", "place_type": "PN", "alternate": ""}, {"id": 2085, "id_tei": "whitew", "name": "Whitewater", "state": "", "latitude": "", "longitude": "", "notes": "", "place_type": "PN", "alternate": ""}, {"id": 2084, "id_tei": "white", "name": "Whitestown", "state": "New York", "latitude": "43.1382", "longitude": "75.3296", "notes": "", "place_type": "PN", "alternate": "Whites Town, White's Town, Whitstown"}, {"id": 2083, "id_tei": "whiter", "name": "White River", "state": "?Indiana?", "latitude": "", "longitude": "", "notes": "", "place_type": "PN", "alternate": ""}, {"id": 2082, "id_tei": "wheel", "name": "Wheeling River", "state": "", "latitude": "", "longitude": "", "notes": "", "place_type": "PN", "alternate": ""}, {"id": 2081, "id_tei": "westport", "name": "Westport", "state": "Missouri", "latitude": "", "longitude": "", "notes": "", "place_type": "PN", "alternate": ""}, {"id": 2080, "id_tei": "westo", "name": "Westown School", "state": "Pennsylvania", "latitude": "", "longitude": "", "notes": "", "place_type": "PN", "alternate": ""}, {"id": 2079, "id_tei": "westo1", "name": "Weston", "state": "Connecticut", "latitude": "", "longitude": "", "notes": "", "place_type": "PN", "alternate": ""}, {"id": 2078, "id_tei": "westm", "name": "Westmoreland", "state": "", "latitude": "", "longitude": "", "notes": "", "place_type": "PN", "alternate": ""}, {"id": 2077, "id_tei": "westm1", "name": "Westminister", "state": "England", "latitude": "", "longitude": "", "notes": "", "place_type": "PN", "alternate": ""}, {"id": 2076, "id_tei": "westl", "name": "Westland", "state": "Pennsylvania", "latitude": "40.27729", "longitude": "80.273116", "notes": "There is also a Westland School in MD and Westland, VA", "place_type": "PN", "alternate": ""}, {"id": 2075, "id_tei": "whart", "name": "West Hartford ", "state": "Connecticut", "latitude": "41.76208", "longitude": "72.742015", "notes": "", "place_type": "PN", "alternate": ""}, {"id": 2074, "id_tei": "westp", "name": "West Point", "state": "New York", "latitude": "41.39148", "longitude": "73.955972", "notes": "", "place_type": "PN", "alternate": "Fort Clinton"}, {"id": 2073, "id_tei": "westl", "name": "West Liberty", "state": "?", "latitude": "", "longitude": "", "notes": "", "place_type": "PN", "alternate": ""}, {"id": 2072, "id_tei": "westi", "name": "West Indies", "state": "", "latitude": "", "longitude": "", "notes": "", "place_type": "PN", "alternate": ""}, {"id": 2071, "id_tei": "westb", "name": "West Branch", "state": "Pennsylvania", "latitude": "41.68054", "longitude": "77.768095", "notes": "", "place_type": "GN", "alternate": ""}, {"id": 2070, "id_tei": "wcree", "name": "White Creek", "state": "New York", "latitude": "42.97008", "longitude": "73.29122", "notes": "", "place_type": "PN", "alternate": ""}, {"id": 2069, "id_tei": "wclay", "name": "White Clay Creek", "state": "Delaware", "latitude": "", "longitude": "", "notes": "", "place_type": "GN", "alternate": ""}, {"id": 2068, "id_tei": "wchie", "name": "White Chief's Village", "state": "New York", "latitude": "", "longitude": "", "notes": "", "place_type": "PN", "alternate": ""}, {"id": 2067, "id_tei": "wgrove", "name": "West Grove", "state": "", "latitude": "", "longitude": "", "notes": "", "place_type": "PN", "alternate": ""}, {"id": 2066, "id_tei": "wches", "name": "West Chester", "state": "Pennsylvania", "latitude": "", "longitude": "", "notes": "", "place_type": "PN", "alternate": ""}, {"id": 2065, "id_tei": "westc", "name": "West Chester", "state": "New York", "latitude": "41.09", "longitude": "73.46", "notes": "Westchester", "place_type": "PN", "alternate": ""}, {"id": 2064, "id_tei": "wcana", "name": "West Canada Creek", "state": "New York", "latitude": "", "longitude": "", "notes": "", "place_type": "GN", "alternate": "Canada Creek"}, {"id": 2063, "id_tei": "wbran", "name": "West Branch Meeting House", "state": "New York", "latitude": "41.57933", "longitude": "73.542132", "notes": "In Dutchess County", "place_type": "PN", "alternate": "Branch, Oblong Friends' Meeting House"}, {"id": 2062, "id_tei": "weare", "name": "Weare", "state": "New Hampshire", "latitude": "", "longitude": "", "notes": "", "place_type": "PN", "alternate": "Wore, Wear"}, {"id": 2061, "id_tei": "waterf", "name": "Waterford", "state": "", "latitude": "", "longitude": "", "notes": "", "place_type": "PN", "alternate": ""}, {"id": 2060, "id_tei": "washc", "name": "Washington County", "state": "Pennsylvania", "latitude": "", "longitude": "", "notes": "", "place_type": "PN", "alternate": ""}, {"id": 2059, "id_tei": "wash", "name": "Washington", "state": "DC", "latitude": "", "longitude": "", "notes": "", "place_type": "PN", "alternate": "Washington city"}, {"id": 2058, "id_tei": "warri", "name": "Warrington", "state": "Pennsylvania", "latitude": "40.24917", "longitude": "75.134125", "notes": "There is also a Warrington Township in York County, PA (40.05, 76.5659)", "place_type": "PN", "alternate": ""}, {"id": 2057, "id_tei": "warri1", "name": "Warrington", "state": "England", "latitude": "", "longitude": "", "notes": "", "place_type": "PN", "alternate": ""}, {"id": 2056, "id_tei": "warre", "name": "Warren", "state": "Pennsylvania", "latitude": "41.84295", "longitude": "79.14504", "notes": "", "place_type": "PN", "alternate": "Warrentown"}, {"id": 2055, "id_tei": "warnt", "name": "Warner's Tavern", "state": "", "latitude": "", "longitude": "", "notes": "", "place_type": "PN", "alternate": ""}, {"id": 2054, "id_tei": "wappi", "name": "Wappinger Creek", "state": "New York", "latitude": "41.58887", "longitude": "73.93672", "notes": "42 miles long from Thompson Pond to the Hudson River in New Hamburg, NY", "place_type": "GN", "alternate": "Wappings Creek"}, {"id": 2053, "id_tei": "wapak", "name": "Wapakoneta", "state": "Ohio", "latitude": "40.3433", "longitude": "84.1134", "notes": "", "place_type": "PN", "alternate": "Wapakonetta, Wapakanetta, Wapakennetta, Waupaukanetta"}, {"id": 2052, "id_tei": "wallk", "name": "Wallkill River", "state": "New York, New Jersey", "latitude": "41.10337", "longitude": "74.5886", "notes": "88 miles long from Lake Mohawk in Sparta, NJ to Rondout Creek near Rosendale, NY.", "place_type": "GN", "alternate": ""}, {"id": 2051, "id_tei": "walli", "name": "Wallingsford", "state": "", "latitude": "", "longitude": "", "notes": "", "place_type": "PN", "alternate": ""}, {"id": 2050, "id_tei": "walkv", "name": "Walk-in-the-Water village", "state": "", "latitude": "", "longitude": "", "notes": "", "place_type": "PN", "alternate": ""}, {"id": 2049, "id_tei": "wales", "name": "Wales", "state": "", "latitude": "", "longitude": "", "notes": "", "place_type": "PN", "alternate": ""}, {"id": 2048, "id_tei": "wains", "name": "Wainsville", "state": "", "latitude": "", "longitude": "", "notes": "", "place_type": "PN", "alternate": ""}, {"id": 2047, "id_tei": "wabasu", "name": "Wabasu", "state": "", "latitude": "", "longitude": "", "notes": "", "place_type": "PN", "alternate": ""}, {"id": 2046, "id_tei": "wabas", "name": "Wabash River", "state": "", "latitude": "", "longitude": "", "notes": "", "place_type": "GN", "alternate": "Ouabache"}, {"id": 2045, "id_tei": "virgi", "name": "Virginia", "state": "", "latitude": "", "longitude": "", "notes": "", "place_type": "PN", "alternate": ""}, {"id": 2044, "id_tei": "vince", "name": "Vincennes", "state": "", "latitude": "", "longitude": "", "notes": "\"French settlement on the Illinois\"", "place_type": "PN", "alternate": ""}, {"id": 2043, "id_tei": "verona", "name": "Verona", "state": "", "latitude": "", "longitude": "", "notes": "", "place_type": "PN", "alternate": ""}, {"id": 2042, "id_tei": "verno", "name": "Vernon", "state": "New York", "latitude": "", "longitude": "", "notes": "", "place_type": "PN", "alternate": ""}, {"id": 2041, "id_tei": "vermo", "name": "Vermont", "state": "", "latitude": "", "longitude": "", "notes": "", "place_type": "PN", "alternate": ""}, {"id": 2040, "id_tei": "verdi", "name": "Verdigris River", "state": "", "latitude": "", "longitude": "", "notes": "", "place_type": "PN", "alternate": ""}, {"id": 2039, "id_tei": "vande", "name": "Vandeventer's Tavern", "state": "", "latitude": "", "longitude": "", "notes": "near Batavia", "place_type": "PN", "alternate": ""}, {"id": 2038, "id_tei": "vallf", "name": "Valley Forge", "state": "", "latitude": "", "longitude": "", "notes": "", "place_type": "PN", "alternate": ""}, {"id": 2037, "id_tei": "utica", "name": "Utica", "state": "New York", "latitude": "43.1009", "longitude": "75.23266", "notes": "", "place_type": "PN", "alternate": ""}, {"id": 2036, "id_tei": "usand", "name": "Upper Sandusky", "state": "Ohio?", "latitude": "", "longitude": "", "notes": "", "place_type": "PN", "alternate": ""}, {"id": 2035, "id_tei": "uniont", "name": "Uniontown", "state": "", "latitude": "", "longitude": "", "notes": "", "place_type": "PN", "alternate": ""}, {"id": 2034, "id_tei": "unadr", "name": "Unadilla River", "state": "New York", "latitude": "42.591874", "longitude": "75.32963", "notes": "71 miles long from Utica to Sidney, NY", "place_type": "GN", "alternate": "Unedilly River"}, {"id": 2033, "id_tei": "unadi", "name": "Unadilla", "state": "New York", "latitude": "42.32536", "longitude": "75.3124", "notes": "", "place_type": "PN", "alternate": "Unedilly"}, {"id": 2032, "id_tei": "ueves", "name": "Upper Evesham", "state": "New Jersey", "latitude": "39.856585", "longitude": "74.90084", "notes": "", "place_type": "PN", "alternate": ""}, {"id": 2031, "id_tei": "tyrin", "name": "Tyringham", "state": "Massachusetts", "latitude": "42.24592", "longitude": "73.20372", "notes": "", "place_type": "PN", "alternate": ""}, {"id": 2030, "id_tei": "tusqu", "name": "Tusquiatossy", "state": "", "latitude": "", "longitude": "", "notes": "", "place_type": "GN", "alternate": ""}, {"id": 2029, "id_tei": "tusco", "name": "Tusco Rocks", "state": "England", "latitude": "", "longitude": "", "notes": "", "place_type": "PN", "alternate": ""}, {"id": 2028, "id_tei": "tuscr", "name": "Tuscarawas River", "state": "Ohio", "latitude": "", "longitude": "", "notes": "", "place_type": "GN", "alternate": ""}, {"id": 2027, "id_tei": "tusca1", "name": "Tuscarora", "state": "New York", "latitude": "42.63062", "longitude": "77.869724", "notes": "", "place_type": "PN", "alternate": ""}, {"id": 2026, "id_tei": "tusca", "name": "Tuscarora Mountain", "state": "Pennsylvania", "latitude": "40.241012", "longitude": "77.5971", "notes": "", "place_type": "GN", "alternate": ""}, {"id": 2025, "id_tei": "turkr", "name": "Turkey River", "state": "", "latitude": "", "longitude": "", "notes": "", "place_type": "PN", "alternate": ""}, {"id": 2024, "id_tei": "turke", "name": "Turkey", "state": "", "latitude": "", "longitude": "", "notes": "", "place_type": "PN", "alternate": ""}, {"id": 2023, "id_tei": "tunes", "name": "Tunesassa", "state": "New York", "latitude": "42.158361", "longitude": "78.75", "notes": "", "place_type": "PN", "alternate": "Tunesassah, Tunesasau"}, {"id": 2022, "id_tei": "tunec", "name": "Tunesassa Creek", "state": "New York", "latitude": "", "longitude": "", "notes": "", "place_type": "GN", "alternate": "Tunesasah Creek"}, {"id": 2021, "id_tei": "troy", "name": "Troy", "state": "New York", "latitude": "42.728412", "longitude": "73.691785", "notes": "", "place_type": "PN", "alternate": ""}, {"id": 2020, "id_tei": "trout", "name": "Trout Run", "state": "Pennsylvania", "latitude": "41.38341", "longitude": "77.053599", "notes": "", "place_type": "GN", "alternate": ""}, {"id": 2019, "id_tei": "trent", "name": "Trenton", "state": "New Jersey", "latitude": "40.21705", "longitude": "74.742938", "notes": "", "place_type": "PN", "alternate": ""}, {"id": 2018, "id_tei": "toxte", "name": "Toxteth Park", "state": "England", "latitude": "", "longitude": "", "notes": "", "place_type": "PN", "alternate": ""}, {"id": 2017, "id_tei": "toncr", "name": "Tontawonta Creek", "state": "", "latitude": "", "longitude": "", "notes": "", "place_type": "PN", "alternate": ""}, {"id": 2016, "id_tei": "tonne", "name": "Tonnewonta", "state": "", "latitude": "", "longitude": "", "notes": "Town of Tonawanda is located at (43.020335, 78.880315)", "place_type": "GN", "alternate": "Tonawanda"}, {"id": 2015, "id_tei": "tiogp", "name": "Tioga Point", "state": "", "latitude": "", "longitude": "", "notes": "junction of Shoumonge and Susquehanna", "place_type": "PN", "alternate": ""}, {"id": 2014, "id_tei": "tioga", "name": "Tioga", "state": "New York, Pennsylvania", "latitude": "42.03009", "longitude": "77.132585", "notes": "58 miles long. There is also a Tiogo Township and County in NY. ", "place_type": "GN", "alternate": "Tioga Tiver, Chemung River"}, {"id": 2013, "id_tei": "timbr", "name": "Timber Ridge Mountain", "state": "", "latitude": "", "longitude": "", "notes": "", "place_type": "PN", "alternate": ""}, {"id": 2012, "id_tei": "ticon", "name": "Ticonderoga", "state": "New York", "latitude": "43.848671", "longitude": "73.423453", "notes": "", "place_type": "PN", "alternate": ""}, {"id": 2011, "id_tei": "three", "name": "Three-Rivers Point", "state": "New York", "latitude": "", "longitude": "", "notes": "Junction of Oneida, Seneca, and Oswego rivers", "place_type": "PN", "alternate": ""}, {"id": 2010, "id_tei": "thomp", "name": "Thompsons  ", "state": "New York", "latitude": "41.654383", "longitude": "74.663463", "notes": "", "place_type": "PN", "alternate": "Thompson"}, {"id": 2009, "id_tei": "thame2", "name": "Thames River", "state": "England", "latitude": "", "longitude": "", "notes": "", "place_type": "GN", "alternate": ""}, {"id": 2008, "id_tei": "thame", "name": "Thames River", "state": "Ontario", "latitude": "", "longitude": "", "notes": "", "place_type": "GN", "alternate": "River Latrench"}, {"id": 2007, "id_tei": "tenne", "name": "Tennessee River", "state": "", "latitude": "", "longitude": "", "notes": "", "place_type": "GN", "alternate": "Cherokee River"}, {"id": 2006, "id_tei": "tenmi", "name": "Tenmile Creek", "state": "Pennsylvania", "latitude": "40.073203", "longitude": "80.32053", "notes": "There is also a Tenmile Run in Central PA near Miflin Township", "place_type": "GN", "alternate": "10 mile Creek"}, {"id": 2005, "id_tei": "taylt", "name": "Taylorstown", "state": "Pennsylvania?", "latitude": "", "longitude": "", "notes": "", "place_type": "PN", "alternate": ""}, {"id": 2004, "id_tei": "tawna", "name": "Tawnawandis", "state": "New York", "latitude": "43.068056", "longitude": "78.445", "notes": "", "place_type": "PN", "alternate": "Tonawanda Reservation. Tawniwandic"}, {"id": 2003, "id_tei": "tawnc", "name": "Tawandy Creek", "state": "New York?", "latitude": "", "longitude": "", "notes": "", "place_type": "PN", "alternate": ""}, {"id": 2002, "id_tei": "tappa", "name": "Tappan", "state": "New York", "latitude": "41.022042", "longitude": "73.94736", "notes": "", "place_type": "PN", "alternate": ""}, {"id": 2001, "id_tei": "trock", "name": "Table Rock", "state": "", "latitude": "", "longitude": "", "notes": "", "place_type": "geogFeat", "alternate": ""}, {"id": 2000, "id_tei": "symon", "name": "Symonds Creek", "state": "North Carolina", "latitude": "36.193291", "longitude": "76.23015", "notes": "Tributary of Matthews Creek South of Elizabeth City, NC.", "place_type": "GN", "alternate": ""}, {"id": 1999, "id_tei": "swope", "name": "Swope Creek", "state": "Pennsylvania", "latitude": "40.523121", "longitude": "75.550425", "notes": "Tributary of Little Lehigh Creek in Berks and Lehigh Countries.", "place_type": "GN", "alternate": "Swabia Creek"}, {"id": 1998, "id_tei": "switz", "name": "Switzerland", "state": "", "latitude": "", "longitude": "", "notes": "", "place_type": "PN", "alternate": ""}, {"id": 1997, "id_tei": "sweet", "name": "Sweet Arrow Creek", "state": "Pennsylvania", "latitude": "", "longitude": "", "notes": "Could be a different name for Little Swatara Creek, Upper Little Swatara Creek, etc.", "place_type": "GN", "alternate": "Sweetaraw"}, {"id": 1996, "id_tei": "swede", "name": "Sweden", "state": "", "latitude": "", "longitude": "", "notes": "", "place_type": "PN", "alternate": ""}, {"id": 1995, "id_tei": "swata", "name": "Swatara Creek", "state": "Pennsylvania", "latitude": "40.39", "longitude": "76.49866", "notes": "72 miles long. Runs from Appalachian Mountains in Schulkill County to the Susquehanna River at Middletown, PA", "place_type": "GN", "alternate": ""}, {"id": 1994, "id_tei": "swanc", "name": "Swan Creek", "state": "", "latitude": "", "longitude": "", "notes": "", "place_type": "PN", "alternate": ""}, {"id": 1993, "id_tei": "sutto", "name": "Sutton's Creek", "state": "North Carolina", "latitude": "36.17308", "longitude": "76.392403", "notes": "", "place_type": "GN", "alternate": ""}, {"id": 1992, "id_tei": "susse", "name": "Sussex Courthouse ", "state": "New Jersey", "latitude": "41.0587", "longitude": "74.7536", "notes": "", "place_type": "PN", "alternate": ""}, {"id": 1991, "id_tei": "susse1", "name": "Sussex", "state": "England", "latitude": "", "longitude": "", "notes": "", "place_type": "PN", "alternate": ""}, {"id": 1990, "id_tei": "susqueh", "name": "Susquehanna", "state": "Pennsylvania", "latitude": "41.94361", "longitude": "75.59918", "notes": "", "place_type": "PN", "alternate": ""}, {"id": 1989, "id_tei": "susqu", "name": "Susquehanna River", "state": "Pennsylvania, Maryland, New York", "latitude": "39.721316", "longitude": "76.232328", "notes": "464 miles long from Ostego Lake in Cooperstown, PA to Chesapeake Bay in MD.", "place_type": "GN", "alternate": ""}, {"id": 1988, "id_tei": "sunny", "name": "Sunnyside", "state": "", "latitude": "", "longitude": "", "notes": "", "place_type": "PN", "alternate": ""}, {"id": 1987, "id_tei": "sunb", "name": "Sunbury", "state": "Pennsylvania", "latitude": "40.862585", "longitude": "76.79441", "notes": "There is also a Sunbury, NC.", "place_type": "PN", "alternate": ""}, {"id": 1986, "id_tei": "sugac", "name": "Sugar Creek", "state": "New York?", "latitude": "", "longitude": "", "notes": "", "place_type": "PN", "alternate": ""}, {"id": 1985, "id_tei": "suga", "name": "Sugarloaf", "state": "", "latitude": "", "longitude": "", "notes": "", "place_type": "GN", "alternate": ""}, {"id": 1984, "id_tei": "suffc", "name": "Suffolk Courthouse", "state": "Virginia", "latitude": "36.729021", "longitude": "76.582223", "notes": "", "place_type": "PN", "alternate": ""}, {"id": 1983, "id_tei": "stras", "name": "Strasburg", "state": "Pennsylvania", "latitude": "39.98316", "longitude": "76.18412", "notes": "", "place_type": "PN", "alternate": "Strawsburgh"}, {"id": 1982, "id_tei": "stony", "name": "Stony Point", "state": "New York", "latitude": "41.22954", "longitude": "73.987085", "notes": "", "place_type": "PN", "alternate": "Stoney Point"}, {"id": 1981, "id_tei": "stonc2", "name": "Stoney Creek", "state": "", "latitude": "", "longitude": "", "notes": "The same Stoney Creek as above? Probably Ohio", "place_type": "GN", "alternate": ""}, {"id": 1980, "id_tei": "stonc", "name": "Stony Creek", "state": "Pennsylvania", "latitude": "40.303964", "longitude": "78.89086", "notes": "", "place_type": "GN", "alternate": "Stonycreek"}, {"id": 1979, "id_tei": "stoke", "name": "Stoke Newington", "state": "England", "latitude": "", "longitude": "", "notes": "district of Hackney", "place_type": "PN", "alternate": ""}, {"id": 1978, "id_tei": "stock", "name": "Stockbridge", "state": "New York", "latitude": "42.9912", "longitude": "75.5993", "notes": "", "place_type": "PN", "alternate": ""}, {"id": 1977, "id_tei": "stvin", "name": "St. Vincennes", "state": "", "latitude": "", "longitude": "", "notes": "", "place_type": "PN", "alternate": ""}, {"id": 1976, "id_tei": "stmar", "name": "St. Marys River", "state": "Michigan", "latitude": "", "longitude": "", "notes": "", "place_type": "GN", "alternate": ""}, {"id": 1975, "id_tei": "stlou", "name": "St. Louis", "state": "", "latitude": "", "longitude": "", "notes": "", "place_type": "PN", "alternate": ""}, {"id": 1974, "id_tei": "stlar", "name": "River St. Lawrence", "state": "New York, Canada", "latitude": "44.704046", "longitude": "75.506287", "notes": "744 miles long from Lake Ontario to Gulf of St. Lawrence/Atlantic Ocean", "place_type": "GN", "alternate": ""}, {"id": 1973, "id_tei": "stjos", "name": "St. Joseph River", "state": "Michigan", "latitude": "", "longitude": "", "notes": "", "place_type": "GN", "alternate": ""}, {"id": 1972, "id_tei": "stjoh", "name": "St. Johns", "state": "", "latitude": "", "longitude": "", "notes": "", "place_type": "PN", "alternate": ""}, {"id": 1971, "id_tei": "stillr", "name": "Stillwater River", "state": "Ohio", "latitude": "", "longitude": "", "notes": "", "place_type": "PN", "alternate": ""}, {"id": 1970, "id_tei": "sthel", "name": "St. Helena", "state": "", "latitude": "", "longitude": "", "notes": "Island to which Napoleon was exiled", "place_type": "PN", "alternate": ""}, {"id": 1969, "id_tei": "steph", "name": "Stephentown", "state": "New York", "latitude": "42.54869", "longitude": "73.374", "notes": "", "place_type": "PN", "alternate": ""}, {"id": 1968, "id_tei": "steco", "name": "Steuben county", "state": "New York", "latitude": "42.26", "longitude": "77.39", "notes": "", "place_type": "PN", "alternate": ""}, {"id": 1967, "id_tei": "stdav", "name": "St. David's Head", "state": "England", "latitude": "", "longitude": "", "notes": "", "place_type": "PN", "alternate": ""}, {"id": 1966, "id_tei": "stcha", "name": "St. Charles", "state": "", "latitude": "", "longitude": "", "notes": "", "place_type": "PN", "alternate": ""}, {"id": 1965, "id_tei": "staunt", "name": "Staunton", "state": "", "latitude": "", "longitude": "", "notes": "", "place_type": "PN", "alternate": ""}, {"id": 1964, "id_tei": "stati", "name": "Staten Island", "state": "", "latitude": "", "longitude": "", "notes": "", "place_type": "PN", "alternate": ""}, {"id": 1963, "id_tei": "stanf", "name": "Stanford", "state": "", "latitude": "", "longitude": "", "notes": "", "place_type": "PN", "alternate": ""}, {"id": 1962, "id_tei": "squaw", "name": "Squawkie Hill", "state": "New York", "latitude": "42.73866", "longitude": "77.897186", "notes": "", "place_type": "PN", "alternate": "Squauhee Hill, Squakee Hill"}, {"id": 1961, "id_tei": "squas", "name": "Squasalow", "state": "", "latitude": "", "longitude": "", "notes": "", "place_type": "PN", "alternate": ""}, {"id": 1960, "id_tei": "spring", "name": "Spring Mills", "state": "", "latitude": "", "longitude": "", "notes": "near Falmouth?", "place_type": "PN", "alternate": ""}, {"id": 1959, "id_tei": "sprmill", "name": "Spring Mill Ferry", "state": "Pennsylvania?", "latitude": "", "longitude": "", "notes": "", "place_type": "PN", "alternate": ""}, {"id": 1958, "id_tei": "sprin2", "name": "Springfield", "state": "Vermont", "latitude": "", "longitude": "", "notes": "", "place_type": "PN", "alternate": ""}, {"id": 1957, "id_tei": "sprin", "name": "Springfield", "state": "New Jersey", "latitude": "40.70169", "longitude": "74.322215", "notes": "", "place_type": "PN", "alternate": ""}, {"id": 1956, "id_tei": "spray", "name": "Spraykers ferry", "state": "New York", "latitude": "", "longitude": "", "notes": "", "place_type": "PN", "alternate": ""}, {"id": 1955, "id_tei": "spraf", "name": "Spragers Ferry", "state": "New York", "latitude": "", "longitude": "", "notes": "", "place_type": "PN", "alternate": ""}, {"id": 1954, "id_tei": "spain", "name": "Spain", "state": "", "latitude": "", "longitude": "", "notes": "", "place_type": "PN", "alternate": ""}, {"id": 1953, "id_tei": "souwa", "name": "Southwark", "state": "England", "latitude": "", "longitude": "", "notes": "", "place_type": "PN", "alternate": ""}, {"id": 1952, "id_tei": "south", "name": "Southampton", "state": "New Jersey", "latitude": "39.92743", "longitude": "74.72658", "notes": "", "place_type": "PN", "alternate": "Southhampton"}, {"id": 1951, "id_tei": "souss", "name": "South Sixth Street", "state": "", "latitude": "", "longitude": "", "notes": "", "place_type": "PN", "alternate": ""}, {"id": 1950, "id_tei": "sbranm", "name": "South Branch Mountain", "state": "", "latitude": "", "longitude": "", "notes": "", "place_type": "GN", "alternate": ""}, {"id": 1949, "id_tei": "somer", "name": "Somerton", "state": "Virginia", "latitude": "36.56821", "longitude": "76.751346", "notes": "", "place_type": "PN", "alternate": ""}, {"id": 1948, "id_tei": "solsb", "name": "Solsbury", "state": "", "latitude": "", "longitude": "", "notes": "", "place_type": "PN", "alternate": ""}, {"id": 1947, "id_tei": "sodus", "name": "Great Sodus River", "state": "Michigan", "latitude": "43.141963", "longitude": "78.865727", "notes": "cohoc", "place_type": "GN", "alternate": "Sodus Creek"}, {"id": 1946, "id_tei": "slipp", "name": "Slippery Rock", "state": "Pennsylvania", "latitude": "40.954152", "longitude": "80.170176", "notes": "large stream", "place_type": "GN", "alternate": ""}, {"id": 1945, "id_tei": "skerr", "name": "Skerries Lights", "state": "", "latitude": "", "longitude": "", "notes": "", "place_type": "PN", "alternate": ""}, {"id": 1944, "id_tei": "skene", "name": "Skenesborough", "state": "New York", "latitude": "43.550863", "longitude": "73.40315", "notes": "", "place_type": "PN", "alternate": ""}, {"id": 1943, "id_tei": "skane", "name": "Skaneateles Lake", "state": "New York", "latitude": "42.865188", "longitude": "76.381092", "notes": "", "place_type": "GN", "alternate": ""}, {"id": 1942, "id_tei": "sings", "name": "Sing Sing", "state": "New York", "latitude": "", "longitude": "", "notes": "Prison", "place_type": "PN", "alternate": ""}, {"id": 1941, "id_tei": "sincll", "name": "Lake Sinclair", "state": "", "latitude": "", "longitude": "", "notes": "Only Lake Sinclair is in Georgia, Name could be confused for a Lake St. Clair elsewhere.", "place_type": "GN", "alternate": ""}, {"id": 1940, "id_tei": "simcol", "name": "Lake Simcoe", "state": "", "latitude": "", "longitude": "", "notes": "", "place_type": "PN", "alternate": ""}, {"id": 1939, "id_tei": "sierr", "name": "Sierra Leone", "state": "", "latitude": "", "longitude": "", "notes": "", "place_type": "PN", "alternate": ""}, {"id": 1938, "id_tei": "sidel", "name": "Sideling Hill", "state": "Pennsylvania", "latitude": "40.009", "longitude": "78.129", "notes": "", "place_type": "GN", "alternate": "Sidling Hill"}, {"id": 1937, "id_tei": "shoum", "name": "Shoumonge River", "state": "", "latitude": "", "longitude": "", "notes": "", "place_type": "PN", "alternate": ""}, {"id": 1936, "id_tei": "shrop", "name": "Shropshire", "state": "England", "latitude": "", "longitude": "", "notes": "", "place_type": "PN", "alternate": ""}, {"id": 1935, "id_tei": "shrew", "name": "Shrewsbury", "state": "NJ? PA?", "latitude": "", "longitude": "", "notes": "", "place_type": "PN", "alternate": ""}, {"id": 1934, "id_tei": "short1", "name": "Short Hill", "state": "Virginia", "latitude": "", "longitude": "", "notes": "", "place_type": "GN", "alternate": ""}, {"id": 1933, "id_tei": "short", "name": "Short Hills", "state": "Canada", "latitude": "43.09816", "longitude": "79.28176", "notes": "", "place_type": "PN", "alternate": ""}, {"id": 1932, "id_tei": "shortc", "name": "Short Creek", "state": "Ohio?", "latitude": "", "longitude": "", "notes": "", "place_type": "PN", "alternate": ""}, {"id": 1931, "id_tei": "shoe", "name": "Shoemakers Town", "state": "", "latitude": "", "longitude": "", "notes": "", "place_type": "PN", "alternate": ""}, {"id": 1930, "id_tei": "shipp", "name": "Shippensburg", "state": "Pennsylvania", "latitude": "40.050645", "longitude": "77.520265", "notes": "", "place_type": "PN", "alternate": "Shippensburgh"}, {"id": 1929, "id_tei": "shenv", "name": "Shenandoah Valley", "state": "", "latitude": "", "longitude": "", "notes": "", "place_type": "GN", "alternate": ""}, {"id": 1928, "id_tei": "shenr", "name": "Shenandoah River", "state": "", "latitude": "", "longitude": "", "notes": "", "place_type": "GN", "alternate": ""}, {"id": 1927, "id_tei": "sheff", "name": "Sheffield", "state": "England", "latitude": "", "longitude": "", "notes": "", "place_type": "PN", "alternate": ""}, {"id": 1926, "id_tei": "sheep", "name": "Sheepscot River", "state": "Maine", "latitude": "44.264917", "longitude": "69.539165", "notes": "66 miles long. Starts at Sheepscot Pond near Palermo, ME and empties into Atlantic Ocean near Southport, ME", "place_type": "GN", "alternate": "Sheepsgut"}, {"id": 1925, "id_tei": "sharo", "name": "Sharon", "state": "Vermont", "latitude": "43.785234", "longitude": "72.45417", "notes": "", "place_type": "PN", "alternate": ""}, {"id": 1924, "id_tei": "sharo2", "name": "Sharon", "state": "Connecticut", "latitude": "", "longitude": "", "notes": "", "place_type": "PN", "alternate": ""}, {"id": 1923, "id_tei": "shamo", "name": "Shamokin Creek", "state": "Pennsylvania", "latitude": "40.782621", "longitude": "76.45699", "notes": "32 miles long, empties into Susquehanna River south of Sunbury, PA", "place_type": "GN", "alternate": "Shomokin Creek"}, {"id": 1922, "id_tei": "sewec", "name": "Sewell's Cabin", "state": "", "latitude": "", "longitude": "", "notes": "", "place_type": "PN", "alternate": ""}, {"id": 1921, "id_tei": "srang", "name": "Seven Ranges", "state": "Ohio", "latitude": "", "longitude": "", "notes": "", "place_type": "PN", "alternate": ""}, {"id": 1920, "id_tei": "sener", "name": "Seneca River", "state": "New York", "latitude": "", "longitude": "", "notes": "", "place_type": "GN", "alternate": ""}, {"id": 1919, "id_tei": "senec", "name": "Seneca Lake", "state": "New York", "latitude": "42.6827", "longitude": "76.90668", "notes": "", "place_type": "GN", "alternate": ""}, {"id": 1918, "id_tei": "senef", "name": "Seneca Falls", "state": "New York", "latitude": "", "longitude": "", "notes": "", "place_type": "GN", "alternate": ""}, {"id": 1917, "id_tei": "seaco", "name": "Seacock Meeting House", "state": "North Carolina", "latitude": "37.13741461", "longitude": "77.5266405", "notes": "", "place_type": "PN", "alternate": "Gravelly Run, Burley, Surry, Sussex, and Upper Monthly Meeting"}, {"id": 1916, "id_tei": "seabr", "name": "Seabrook", "state": "", "latitude": "", "longitude": "", "notes": "", "place_type": "PN", "alternate": ""}, {"id": 1915, "id_tei": "scroi", "name": "Saint Croix River", "state": "Maine/Canada", "latitude": "45.585212", "longitude": "67.50481", "notes": "71 miles long from Chiputneticook Lakes to Passamaquoddy Bay", "place_type": "GN", "alternate": ""}, {"id": 1914, "id_tei": "scot", "name": "Scotland", "state": "", "latitude": "", "longitude": "", "notes": "", "place_type": "PN", "alternate": ""}, {"id": 1913, "id_tei": "scipi", "name": "Scipio ", "state": "New York", "latitude": "42.7875", "longitude": "76.5719", "notes": "", "place_type": "PN", "alternate": ""}, {"id": 1912, "id_tei": "sciot", "name": "Scioto River", "state": "Ohio", "latitude": "38.76111", "longitude": "82.99626", "notes": "231 miles long from New Hampshire, OH to Ohio River near Portsmouth, OH", "place_type": "GN", "alternate": ""}, {"id": 1911, "id_tei": "schuy", "name": "Schuyler", "state": "New York", "latitude": "43.096111", "longitude": "75.098056", "notes": "", "place_type": "PN", "alternate": "Scyler town"}, {"id": 1910, "id_tei": "schri", "name": "Schuylkill River", "state": "Pennsylvania", "latitude": "39.94824", "longitude": "75.185022", "notes": "135 miles long from Tuscarora Springs, PA to the Delaware River near the Philadelphia Navy Yard", "place_type": "GN", "alternate": "Schuilkill"}, {"id": 1909, "id_tei": "schoh", "name": "Schoharie_Creek", "state": "New York", "latitude": "42.9309", "longitude": "74.27809", "notes": "93 miles long from the foot oh Indian Head Mountain to the Mohawk River near Tribes Hill, NY", "place_type": "GN", "alternate": ""}, {"id": 1908, "id_tei": "schen", "name": "Schenectady ", "state": "New York", "latitude": "42.8142", "longitude": "73.9396", "notes": "", "place_type": "PN", "alternate": "Schenectida"}, {"id": 1907, "id_tei": "schag", "name": "Schaghticoke", "state": "New York", "latitude": "42.90008", "longitude": "73.58539", "notes": "", "place_type": "PN", "alternate": "Scatecook, Scatacook"}, {"id": 1906, "id_tei": "scawy", "name": "Scawyace", "state": "New York", "latitude": "", "longitude": "", "notes": "Cayuga village", "place_type": "PN", "alternate": "Long Falls"}, {"id": 1905, "id_tei": "scaro", "name": "South Carolina", "state": "South Carolina", "latitude": "", "longitude": "", "notes": "", "place_type": "PN", "alternate": ""}, {"id": 1904, "id_tei": "saybr", "name": "Saybrook", "state": "Connecticut", "latitude": "", "longitude": "", "notes": "", "place_type": "PN", "alternate": ""}, {"id": 1903, "id_tei": "savmo", "name": "Savage Mountains", "state": "Pennsylvania", "latitude": "39.5311", "longitude": "78.441", "notes": "", "place_type": "PN", "alternate": "Savage Mountain"}, {"id": 1902, "id_tei": "sarat", "name": "Saratoga ", "state": "New York", "latitude": "43.04485", "longitude": "73.630073", "notes": "", "place_type": "PN", "alternate": ""}, {"id": 1901, "id_tei": "sands", "name": "Sandy Spring", "state": "", "latitude": "", "longitude": "", "notes": "", "place_type": "PN", "alternate": ""}, {"id": 1900, "id_tei": "", "name": "Sandy Ridge", "state": "", "latitude": "", "longitude": "", "notes": "has a light house", "place_type": "PN", "alternate": ""}, {"id": 1899, "id_tei": "sandh", "name": "Sandy-Hook", "state": "", "latitude": "", "longitude": "", "notes": "", "place_type": "PN", "alternate": "Sandyhook"}, {"id": 1898, "id_tei": "sandy", "name": "Sandy Creek", "state": "Pennsylvania", "latitude": "41.48069", "longitude": "80.227833", "notes": "", "place_type": "GN", "alternate": ""}, {"id": 1897, "id_tei": "sandw", "name": "Sandwich", "state": "Maine", "latitude": "43.79087", "longitude": "71.4105", "notes": "", "place_type": "PN", "alternate": ""}, {"id": 1896, "id_tei": "sandu", "name": "Sandusky", "state": "New York", "latitude": "42.4959", "longitude": "78.38446", "notes": "", "place_type": "PN", "alternate": ""}, {"id": 1895, "id_tei": "sandr", "name": "Sandusky River", "state": "Ohio", "latitude": "", "longitude": "", "notes": "", "place_type": "GN", "alternate": ""}, {"id": 1894, "id_tei": "sandb", "name": "Sandusky Bay", "state": "Ohio", "latitude": "", "longitude": "", "notes": "", "place_type": "GN", "alternate": "Lake Sandusky"}, {"id": 1893, "id_tei": "sand", "name": "Sandusky", "state": "Ohio", "latitude": "41.2648", "longitude": "82.4233", "notes": "", "place_type": "PN", "alternate": "Sanduskey"}, {"id": 1892, "id_tei": "saltc", "name": "Salt Creek", "state": "", "latitude": "", "longitude": "", "notes": "", "place_type": "PN", "alternate": ""}, {"id": 1891, "id_tei": "salis", "name": "Salisbury", "state": "Connecticut", "latitude": "", "longitude": "", "notes": "", "place_type": "PN", "alternate": ""}, {"id": 1890, "id_tei": "salin", "name": "Salina", "state": "New York", "latitude": "", "longitude": "", "notes": "", "place_type": "PN", "alternate": ""}, {"id": 1889, "id_tei": "salem", "name": "Salem", "state": "New Jersey", "latitude": "39.57178", "longitude": "75.467142", "notes": "", "place_type": "PN", "alternate": ""}, {"id": 1888, "id_tei": "salem3", "name": "Salem", "state": "Massachusetts", "latitude": "", "longitude": "", "notes": "", "place_type": "PN", "alternate": ""}, {"id": 1887, "id_tei": "salem2", "name": "Salem", "state": "Iowa", "latitude": "", "longitude": "", "notes": "", "place_type": "PN", "alternate": ""}, {"id": 1886, "id_tei": "sadd", "name": "Saddle", "state": "", "latitude": "", "longitude": "", "notes": "on the Little River", "place_type": "geogFeat", "alternate": ""}, {"id": 1885, "id_tei": "rushr", "name": "Rushe River", "state": "", "latitude": "", "longitude": "", "notes": "", "place_type": "PN", "alternate": ""}, {"id": 1884, "id_tei": "rus", "name": "Russia", "state": "", "latitude": "", "longitude": "", "notes": "", "place_type": "PN", "alternate": ""}, {"id": 1883, "id_tei": "rondo", "name": "Rondout Creek", "state": "New York", "latitude": "41.900424", "longitude": "74.462564", "notes": "63 miles long from Rocky Mountain in Olive, NY to Hudson River in Kingston, NY", "place_type": "GN", "alternate": "Rosendell/Rosendale"}, {"id": 1882, "id_tei": "rome2", "name": "Rome", "state": "Italy", "latitude": "", "longitude": "", "notes": "", "place_type": "PN", "alternate": ""}, {"id": 1881, "id_tei": "rome", "name": "Rome", "state": "New York", "latitude": "", "longitude": "", "notes": "", "place_type": "PN", "alternate": ""}, {"id": 1880, "id_tei": "rockm", "name": "Rocky Mountains", "state": "", "latitude": "", "longitude": "", "notes": "", "place_type": "PN", "alternate": ""}, {"id": 1879, "id_tei": "rockf", "name": "Rocky Fork", "state": "", "latitude": "", "longitude": "", "notes": "", "place_type": "GN", "alternate": ""}, {"id": 1878, "id_tei": "rockc", "name": "Rockingham County", "state": "New Hampshire", "latitude": "", "longitude": "", "notes": "", "place_type": "PN", "alternate": ""}, {"id": 1877, "id_tei": "roche", "name": "Roche de Bout", "state": "Ohio", "latitude": "", "longitude": "", "notes": "limestone formation", "place_type": "GN", "alternate": "Rochede Bout"}, {"id": 1876, "id_tei": "robin", "name": "Robinson", "state": "Pennsylvania", "latitude": "40.450346", "longitude": "80.336729", "notes": "", "place_type": "PN", "alternate": ""}, {"id": 1875, "id_tei": "roarv", "name": "Roaring Creek Valley", "state": "Pennsylvania", "latitude": "", "longitude": "", "notes": "", "place_type": "PN", "alternate": ""}, {"id": 1874, "id_tei": "roari", "name": "Roaring Creek", "state": "Pennsylvania", "latitude": "40.93436", "longitude": "76.524636", "notes": "21 miles long from Roaring Creek Township to Susquehanna River near Danville, PA", "place_type": "PN", "alternate": ""}, {"id": 1873, "id_tei": "roano", "name": "Roanoke", "state": "Virginia", "latitude": "37.16", "longitude": "79.56", "notes": "", "place_type": "PN", "alternate": ""}, {"id": 1872, "id_tei": "rouger", "name": "River Rouge", "state": "", "latitude": "", "longitude": "", "notes": "This may be the 127 mile river in Michigan (42.63225, 83.17632)", "place_type": "GN", "alternate": "Roosh, Rushe"}, {"id": 1871, "id_tei": "richt", "name": "Rich's tavern", "state": "", "latitude": "", "longitude": "", "notes": "Now known as Kepler's", "place_type": "PN", "alternate": ""}, {"id": 1870, "id_tei": "richs", "name": "Rich Square", "state": "North Carolina", "latitude": "36.274044", "longitude": "77.284412", "notes": "", "place_type": "PN", "alternate": ""}, {"id": 1869, "id_tei": "richm", "name": "Richmond", "state": "Virginia", "latitude": "", "longitude": "", "notes": "", "place_type": "PN", "alternate": ""}, {"id": 1868, "id_tei": "richl", "name": "Richland", "state": "Pennsylvania", "latitude": "40.357222", "longitude": "76.257222", "notes": "", "place_type": "PN", "alternate": ""}, {"id": 1867, "id_tei": "rhode", "name": "Rhode Island", "state": "", "latitude": "", "longitude": "", "notes": "", "place_type": "PN", "alternate": ""}, {"id": 1866, "id_tei": "redof", "name": "Restone Old Fort", "state": "Pennsylvania", "latitude": "", "longitude": "", "notes": "", "place_type": "PN", "alternate": "Old Fort"}, {"id": 1865, "id_tei": "renss", "name": "Rensselaer County", "state": "New York", "latitude": "", "longitude": "", "notes": "", "place_type": "PN", "alternate": ""}, {"id": 1864, "id_tei": "redst1", "name": "Redstone", "state": "", "latitude": "", "longitude": "", "notes": "", "place_type": "PN", "alternate": ""}, {"id": 1863, "id_tei": "redst", "name": "Redstone Creek", "state": "Pennsylvania", "latitude": "40.033464", "longitude": "79.868556", "notes": "28 Miles long from Chestnut Ridge to Brownsville, PA", "place_type": "PN", "alternate": ""}, {"id": 1862, "id_tei": "redriv", "name": "Red River", "state": "", "latitude": "", "longitude": "", "notes": "", "place_type": "PN", "alternate": ""}, {"id": 1861, "id_tei": "readi", "name": "Reading", "state": "Pennsylvania", "latitude": "40.33565", "longitude": "75.926875", "notes": "", "place_type": "PN", "alternate": ""}, {"id": 1860, "id_tei": "rarit", "name": "Raritan River", "state": "New Jersey", "latitude": "40.54195", "longitude": "74.514341", "notes": "30 Miles long from Bridgewater, NJ to Raritan Bay", "place_type": "GN", "alternate": "Rariton"}, {"id": 1859, "id_tei": "rappa", "name": "Rappahannock river", "state": "", "latitude": "", "longitude": "", "notes": "", "place_type": "PN", "alternate": ""}, {"id": 1858, "id_tei": "rangr", "name": "river Range", "state": "", "latitude": "", "longitude": "", "notes": "", "place_type": "PN", "alternate": ""}, {"id": 1857, "id_tei": "rando", "name": "Randolph", "state": "", "latitude": "", "longitude": "", "notes": "", "place_type": "PN", "alternate": ""}, {"id": 1856, "id_tei": "randt", "name": "Randallstown", "state": "", "latitude": "", "longitude": "", "notes": "", "place_type": "PN", "alternate": ""}, {"id": 1855, "id_tei": "ralei", "name": "Raleigh", "state": "North Carolina", "latitude": "35.77959", "longitude": "78.638179", "notes": "", "place_type": "PN", "alternate": "Rawleigh"}, {"id": 1854, "id_tei": "raisr", "name": "Raisin River", "state": "Michigan", "latitude": "", "longitude": "", "notes": "", "place_type": "PN", "alternate": "Grape River"}, {"id": 1853, "id_tei": "rahwa", "name": "Rahway", "state": "New Jersey", "latitude": "40.60816", "longitude": "74.27765", "notes": "", "place_type": "PN", "alternate": "Rahaway"}, {"id": 1852, "id_tei": "radno", "name": "Radnor", "state": "", "latitude": "", "longitude": "", "notes": "", "place_type": "PN", "alternate": ""}, {"id": 1851, "id_tei": "quinc", "name": "Quince's Wharf", "state": "", "latitude": "", "longitude": "", "notes": "", "place_type": "PN", "alternate": ""}, {"id": 1850, "id_tei": "queen", "name": "Queenstown", "state": "", "latitude": "", "longitude": "", "notes": "", "place_type": "PN", "alternate": ""}, {"id": 1849, "id_tei": "quebe", "name": "Quebec", "state": "Canada", "latitude": "", "longitude": "", "notes": "", "place_type": "PN", "alternate": ""}, {"id": 1848, "id_tei": "putib", "name": "Put-in-Bay", "state": "", "latitude": "", "longitude": "", "notes": "", "place_type": "PN", "alternate": ""}, {"id": 1847, "id_tei": "purch", "name": "Purchase Meeting House", "state": "New York", "latitude": "41.065817", "longitude": "73.718499", "notes": "", "place_type": "PN", "alternate": "Purchace"}, {"id": 1846, "id_tei": "provi", "name": "Providence", "state": "Rhode Island", "latitude": "", "longitude": "", "notes": "", "place_type": "PN", "alternate": ""}, {"id": 1845, "id_tei": "prinbay", "name": "Prince's Bay", "state": "", "latitude": "", "longitude": "", "notes": "", "place_type": "PN", "alternate": ""}, {"id": 1844, "id_tei": "prince", "name": "Prince town", "state": "Pennsylvania?", "latitude": "", "longitude": "", "notes": "", "place_type": "PN", "alternate": ""}, {"id": 1843, "id_tei": "presq1", "name": "Presqueile", "state": "", "latitude": "", "longitude": "", "notes": "", "place_type": "PN", "alternate": ""}, {"id": 1842, "id_tei": "presq", "name": "Presque-Isle", "state": "Pennsylvania", "latitude": "42.163114", "longitude": "80.101172", "notes": "", "place_type": "PN", "alternate": ""}, {"id": 1841, "id_tei": "presc", "name": "Prescott", "state": "Ontario, Canada", "latitude": "", "longitude": "", "notes": "", "place_type": "PN", "alternate": ""}, {"id": 1840, "id_tei": "prair", "name": "Prairie du Cheine", "state": "", "latitude": "", "longitude": "", "notes": "", "place_type": "PN", "alternate": ""}, {"id": 1839, "id_tei": "poweltav", "name": "Powel's Tavern", "state": "", "latitude": "", "longitude": "", "notes": "", "place_type": "PN", "alternate": ""}, {"id": 1838, "id_tei": "powel1", "name": "Powell   ", "state": "", "latitude": "", "longitude": "", "notes": "", "place_type": "PN", "alternate": ""}, {"id": 1837, "id_tei": "powel", "name": "Powell Creek", "state": "Pennsylvania", "latitude": "40.42901", "longitude": "76.923283", "notes": "16.5 Miles long from Carsonville, PA to the Clarks Ferry Bridge in Duncannon, PA", "place_type": "GN", "alternate": ""}, {"id": 1836, "id_tei": "pough", "name": "Poughkeepsie", "state": "New York", "latitude": "41.70037", "longitude": "73.92097", "notes": "", "place_type": "PN", "alternate": "Pocepsey"}, {"id": 1835, "id_tei": "pottt", "name": "Pottstown", "state": "Pennsylvania", "latitude": "40.245374", "longitude": "75.64963", "notes": "", "place_type": "PN", "alternate": "Potts-Town"}, {"id": 1834, "id_tei": "potts", "name": "Pottsgrove", "state": "Pennsylvania", "latitude": "40.26482", "longitude": "75.61185", "notes": "", "place_type": "PN", "alternate": "Potts Grove"}, {"id": 1833, "id_tei": "potawc", "name": "Potawatomie Creek", "state": "", "latitude": "", "longitude": "", "notes": "", "place_type": "PN", "alternate": ""}, {"id": 1832, "id_tei": "potor", "name": "Potomac River", "state": "", "latitude": "", "longitude": "", "notes": "", "place_type": "GN", "alternate": "Patowmack, Potowmack"}, {"id": 1831, "id_tei": "postt", "name": "Post Town", "state": "", "latitude": "", "longitude": "", "notes": "", "place_type": "PN", "alternate": ""}, {"id": 1830, "id_tei": "portu", "name": "Portugal", "state": "", "latitude": "", "longitude": "", "notes": "", "place_type": "PN", "alternate": ""}, {"id": 1829, "id_tei": "portt", "name": "Port Tobacco ", "state": "Virginia", "latitude": "", "longitude": "", "notes": "near Alexandria", "place_type": "PN", "alternate": ""}, {"id": 1828, "id_tei": "proya", "name": "Port Royal", "state": "Virginia", "latitude": "", "longitude": "", "notes": "on the Rappahanock River", "place_type": "PN", "alternate": ""}, {"id": 1827, "id_tei": "paupr", "name": "Port-Au-Prince", "state": "Haiti", "latitude": "", "longitude": "", "notes": "", "place_type": "PN", "alternate": ""}, {"id": 1826, "id_tei": "pambo", "name": "Port Amboy", "state": "", "latitude": "", "longitude": "", "notes": "", "place_type": "PN", "alternate": ""}, {"id": 1825, "id_tei": "port", "name": "Portage", "state": "", "latitude": "", "longitude": "", "notes": "on the Little River", "place_type": "PN", "alternate": ""}, {"id": 1824, "id_tei": "ponti", "name": "Pontiac", "state": "Michigan", "latitude": "", "longitude": "", "notes": "", "place_type": "PN", "alternate": ""}, {"id": 1823, "id_tei": "polan", "name": "Poland", "state": "", "latitude": "", "longitude": "", "notes": "", "place_type": "PN", "alternate": ""}, {"id": 1822, "id_tei": "prais", "name": "Point Raisin", "state": "Michigan", "latitude": "", "longitude": "", "notes": "near mouth of Raisin River", "place_type": "PN", "alternate": ""}, {"id": 1821, "id_tei": "point", "name": "Point Abino", "state": "Canada", "latitude": "", "longitude": "", "notes": "", "place_type": "PN", "alternate": ""}, {"id": 1820, "id_tei": "poriv", "name": "Po River", "state": "", "latitude": "", "longitude": "", "notes": "", "place_type": "GN", "alternate": ""}, {"id": 1819, "id_tei": "plymo1", "name": "Plymouth", "state": "Pennsylvania", "latitude": "41.24036", "longitude": "75.944643", "notes": "", "place_type": "PN", "alternate": ""}, {"id": 1818, "id_tei": "plymo", "name": "Plymouth Meetinghouse", "state": "Pennsylvania", "latitude": "40.102854", "longitude": "75.280312", "notes": "", "place_type": "PN", "alternate": "Plymoth Meeting house"}, {"id": 1817, "id_tei": "plums", "name": "Plumstead", "state": "Pennsylvania", "latitude": "40.38406", "longitude": "75.119511", "notes": "", "place_type": "PN", "alternate": ""}, {"id": 1816, "id_tei": "plumo", "name": "Plum-Orchard", "state": "", "latitude": "", "longitude": "", "notes": "place to dine", "place_type": "PN", "alternate": ""}, {"id": 1815, "id_tei": "pleas", "name": "Pleasant River", "state": "Maine", "latitude": "45.342554", "longitude": "69.04534", "notes": "", "place_type": "GN", "alternate": ""}, {"id": 1814, "id_tei": "pitts2", "name": "Pittstown", "state": "New York", "latitude": "42.83508", "longitude": "73.485114", "notes": "", "place_type": "PN", "alternate": ""}, {"id": 1813, "id_tei": "pitts1", "name": "Pittstown", "state": "New Jersey", "latitude": "40.58287", "longitude": "74.958495", "notes": "", "place_type": "PN", "alternate": "Pitts Town"}, {"id": 1812, "id_tei": "pitts", "name": "Pittsburgh", "state": "Pennsylvania", "latitude": "40.440625", "longitude": "79.995886", "notes": "", "place_type": "PN", "alternate": "Pitts-Burgh, Pittsburg"}, {"id": 1811, "id_tei": "pisca", "name": "Piscattaway", "state": "Virginia?", "latitude": "", "longitude": "", "notes": "", "place_type": "PN", "alternate": ""}, {"id": 1810, "id_tei": "pipec", "name": "Pipe Creek", "state": "", "latitude": "", "longitude": "", "notes": "", "place_type": "PN", "alternate": ""}, {"id": 1809, "id_tei": "piney", "name": "Piney Woods Meeting", "state": "North Carolina", "latitude": "36.272295", "longitude": "76.558383", "notes": "", "place_type": "PN", "alternate": ""}, {"id": 1808, "id_tei": "pinec", "name": "Pine Creek", "state": "Pennsylvania", "latitude": "41.15923", "longitude": "79.05865", "notes": "", "place_type": "PN", "alternate": "Pinecreek"}, {"id": 1807, "id_tei": "piles", "name": "Pilesgrove", "state": "New Jersey", "latitude": "39.65314", "longitude": "75.314644", "notes": "", "place_type": "PN", "alternate": ""}, {"id": 1806, "id_tei": "pikec", "name": "Pike Creek", "state": "", "latitude": "", "longitude": "", "notes": "", "place_type": "PN", "alternate": ""}, {"id": 1805, "id_tei": "pigeo", "name": "Pigeon Creek", "state": "Pennsylvania", "latitude": "40.53374", "longitude": "75.93032", "notes": "", "place_type": "GN", "alternate": "Pidgeon's creek"}, {"id": 1804, "id_tei": "philc", "name": "Philadelphia Country", "state": "Pennsylvania", "latitude": "", "longitude": "", "notes": "", "place_type": "PN", "alternate": ""}, {"id": 1803, "id_tei": "phila", "name": "Philadelphia", "state": "Pennsylvania", "latitude": "39.952", "longitude": "75.1447", "notes": "", "place_type": "PN", "alternate": ""}, {"id": 1802, "id_tei": "pfiel", "name": "Potter's Field", "state": "", "latitude": "", "longitude": "", "notes": "", "place_type": "PN", "alternate": ""}, {"id": 1801, "id_tei": "piquap", "name": "Piqua Plains", "state": "", "latitude": "", "longitude": "", "notes": "", "place_type": "GN", "alternate": ""}, {"id": 1800, "id_tei": "piqua", "name": "Piqua", "state": "Ohio", "latitude": "40.851", "longitude": "84.1453", "notes": "", "place_type": "PN", "alternate": ""}, {"id": 1799, "id_tei": "petem", "name": "Peters Mountain", "state": "Pennsylvania", "latitude": "", "longitude": "", "notes": "", "place_type": "GN", "alternate": ""}, {"id": 1798, "id_tei": "petec", "name": "Peter's Camp", "state": "Pennsylvania", "latitude": "41.679519", "longitude": "77.063857", "notes": "", "place_type": "PN", "alternate": "Blossburg"}, {"id": 1797, "id_tei": "peter", "name": "Petersburg", "state": "New Jersey", "latitude": "", "longitude": "", "notes": "", "place_type": "PN", "alternate": ""}, {"id": 1796, "id_tei": "perkri", "name": "Perkiomen River?", "state": "", "latitude": "", "longitude": "", "notes": "", "place_type": "GN", "alternate": "Perkioming"}, {"id": 1795, "id_tei": "perki", "name": "Perkiomen", "state": "Pennsylvania", "latitude": "", "longitude": "", "notes": "", "place_type": "PN", "alternate": "Perkiming, Perkcoming"}, {"id": 1794, "id_tei": "peque", "name": "Pequest River", "state": "New Jersey", "latitude": "40.839212", "longitude": "75.039625", "notes": "", "place_type": "GN", "alternate": ""}, {"id": 1793, "id_tei": "pensa", "name": "Pensacola", "state": "Florida", "latitude": "", "longitude": "", "notes": "", "place_type": "PN", "alternate": ""}, {"id": 1792, "id_tei": "penob2", "name": "Penobscot Bay", "state": "Maine", "latitude": "44.4073", "longitude": "68.88565", "notes": "", "place_type": "GN", "alternate": ""}, {"id": 1791, "id_tei": "penob", "name": "Penobscot", "state": "Maine", "latitude": "44.46452", "longitude": "68.71114", "notes": "", "place_type": "PN", "alternate": ""}, {"id": 1790, "id_tei": "penns", "name": "Pennsylvania", "state": "", "latitude": "41", "longitude": "77.5", "notes": "", "place_type": "PN", "alternate": "Pensylvania"}, {"id": 1789, "id_tei": "pelha", "name": "Pelham township", "state": "North Carolina", "latitude": "36.50715", "longitude": "79.447886", "notes": "There is also a Pelham Township in Canada", "place_type": "PN", "alternate": ""}, {"id": 1788, "id_tei": "peche", "name": "Peche Island", "state": "Michigan", "latitude": "", "longitude": "", "notes": "", "place_type": "GN", "alternate": "Pearl Island"}, {"id": 1787, "id_tei": "pearl", "name": "Pearl Street", "state": "", "latitude": "", "longitude": "", "notes": "", "place_type": "PN", "alternate": ""}, {"id": 1786, "id_tei": "peaks", "name": "Peak's Hole", "state": "England", "latitude": "", "longitude": "", "notes": "", "place_type": "PN", "alternate": ""}, {"id": 1785, "id_tei": "peach", "name": "Peach Lake", "state": "New York", "latitude": "41.367595", "longitude": "73.577904", "notes": "", "place_type": "PN", "alternate": "Peach Pond"}, {"id": 1784, "id_tei": "paxto", "name": "Paxton Creek", "state": "Pennsylvania", "latitude": "40.330556", "longitude": "76.8327", "notes": "", "place_type": "GN", "alternate": "Paxten, Paxtang"}, {"id": 1783, "id_tei": "paulu", "name": "Paulus Hook", "state": "New Jersey", "latitude": "", "longitude": "", "notes": "", "place_type": "PN", "alternate": ""}, {"id": 1782, "id_tei": "pauli", "name": "Paulins Kill (River)", "state": "New Jersey", "latitude": "41.09012", "longitude": "74.772295", "notes": "42 Miles long from Fredon Township, Sussex County to Knowlton Township, Warren County", "place_type": "GN", "alternate": "Pawlinskill"}, {"id": 1781, "id_tei": "pattc", "name": "Patterson's Creek", "state": "", "latitude": "", "longitude": "", "notes": "", "place_type": "GN", "alternate": ""}, {"id": 1780, "id_tei": "pathv", "name": "Path Valley", "state": "Pennsylvania", "latitude": "40.0916", "longitude": "77.80775", "notes": "", "place_type": "GN", "alternate": ""}, {"id": 1779, "id_tei": "patapr", "name": "Patapsco River", "state": "", "latitude": "", "longitude": "", "notes": "", "place_type": "PN", "alternate": "Potapsco"}, {"id": 1778, "id_tei": "passa", "name": "Passamaquoddy Bay", "state": "Canada", "latitude": "45.096791", "longitude": "66.982956", "notes": "", "place_type": "GN", "alternate": ""}, {"id": 1777, "id_tei": "pasqu", "name": "Pasquotank County", "state": "North Carolina", "latitude": "36.29271", "longitude": "76.3174", "notes": "", "place_type": "PN", "alternate": ""}, {"id": 1776, "id_tei": "pasqr", "name": "Pasquotank River", "state": "North Carolina", "latitude": "36.273895", "longitude": "76.14109", "notes": "", "place_type": "PN", "alternate": ""}, {"id": 1775, "id_tei": "paris2", "name": "Paris", "state": "France", "latitude": "", "longitude": "", "notes": "", "place_type": "PN", "alternate": ""}, {"id": 1774, "id_tei": "paris", "name": "Paris", "state": "New York", "latitude": "", "longitude": "", "notes": "", "place_type": "PN", "alternate": ""}, {"id": 1773, "id_tei": "ppost", "name": "Painted Post", "state": "New York", "latitude": "42.162", "longitude": "77.0941", "notes": "", "place_type": "PN", "alternate": ""}, {"id": 1772, "id_tei": "paintc", "name": "Paint Creek", "state": "Ohio", "latitude": "", "longitude": "", "notes": "", "place_type": "PN", "alternate": ""}, {"id": 1771, "id_tei": "oyong", "name": "Oyongwongyeh Creek", "state": "", "latitude": "", "longitude": "", "notes": "", "place_type": "GN", "alternate": "Oyonwayer"}, {"id": 1770, "id_tei": "oxfor", "name": "Oxford", "state": "England", "latitude": "", "longitude": "", "notes": "", "place_type": "PN", "alternate": ""}, {"id": 1769, "id_tei": "owego", "name": "Owego Creek", "state": "New York", "latitude": "42.16787", "longitude": "76.251876", "notes": "", "place_type": "GN", "alternate": ""}, {"id": 1768, "id_tei": "owasc", "name": "Owasco Lake", "state": "New York", "latitude": "42.8279", "longitude": "76.51154", "notes": "", "place_type": "GN", "alternate": ""}, {"id": 1767, "id_tei": "ottow", "name": "Ottoway", "state": "New York", "latitude": "42.75025", "longitude": "74.86", "notes": "There is also an Ottoway, VA.", "place_type": "GN", "alternate": "Ottaway"}, {"id": 1766, "id_tei": "ottor", "name": "Ottoway River", "state": "", "latitude": "", "longitude": "", "notes": "", "place_type": "PN", "alternate": ""}, {"id": 1765, "id_tei": "otterc", "name": "Otter Creek", "state": "", "latitude": "", "longitude": "", "notes": "", "place_type": "PN", "alternate": ""}, {"id": 1764, "id_tei": "ottar", "name": "Ottawa River", "state": "Quebec/Ontario", "latitude": "45.4619", "longitude": "75.67636", "notes": "790 Miles Long from Lake Capimitchigama, Quebec to St. Lawrence River, Quebec", "place_type": "GN", "alternate": ""}, {"id": 1763, "id_tei": "otseg", "name": "Otsego Lake", "state": "New York", "latitude": "", "longitude": "", "notes": "", "place_type": "GN", "alternate": ""}, {"id": 1762, "id_tei": "otego", "name": "Otego", "state": "New York", "latitude": "42.397302", "longitude": "75.173502", "notes": "", "place_type": "PN", "alternate": "Ottego"}, {"id": 1761, "id_tei": "oswft", "name": "Oswego Fort", "state": "New York", "latitude": "43.46588", "longitude": "76.508194", "notes": "", "place_type": "PN", "alternate": "Oswego garrison"}, {"id": 1760, "id_tei": "osweo", "name": "Osweo", "state": "", "latitude": "", "longitude": "", "notes": "", "place_type": "GN", "alternate": ""}, {"id": 1759, "id_tei": "osweg2", "name": "Oswego", "state": "New York", "latitude": "", "longitude": "", "notes": "", "place_type": "PN", "alternate": ""}, {"id": 1758, "id_tei": "osweg1", "name": "Oswegatchie", "state": "New York", "latitude": "44.18284", "longitude": "75.0702", "notes": "", "place_type": "PN", "alternate": "Oswegatche"}, {"id": 1757, "id_tei": "osweg", "name": "Oswego Meeting House", "state": "new York", "latitude": "41.70286", "longitude": "73.7289", "notes": "Located in Moore's Mill NY", "place_type": "PN", "alternate": "Swago"}, {"id": 1756, "id_tei": "oswef", "name": "Oswego Falls", "state": "New York", "latitude": "43.32616", "longitude": "76.42047", "notes": "", "place_type": "GN", "alternate": ""}, {"id": 1755, "id_tei": "osway", "name": "Oswayo Creek", "state": "Pennsylvania", "latitude": "41.96468", "longitude": "78.1773", "notes": "", "place_type": "GN", "alternate": "Oswago Creek"}, {"id": 1754, "id_tei": "orang", "name": "Orange County", "state": "New York", "latitude": "41.4", "longitude": "74.3118", "notes": "", "place_type": "PN", "alternate": ""}, {"id": 1753, "id_tei": "opekr", "name": "Opekon River", "state": "", "latitude": "", "longitude": "", "notes": "", "place_type": "GN", "alternate": ""}, {"id": 1752, "id_tei": "ontar1", "name": "Ontario County", "state": "New York", "latitude": "", "longitude": "", "notes": "", "place_type": "PN", "alternate": ""}, {"id": 1751, "id_tei": "ontar", "name": "Ontario", "state": "Canada", "latitude": "", "longitude": "", "notes": "", "place_type": "PN", "alternate": ""}, {"id": 1750, "id_tei": "onoss", "name": "Onondaga Salt Springs Reservation", "state": "New York", "latitude": "43.0976", "longitude": "76.1954", "notes": "Land around the Onondaga Lake transferred from Onondaga Nation to salt producers to use to produce salt for everyone", "place_type": "PN", "alternate": "Onadaga [sic] Salt Works"}, {"id": 1749, "id_tei": "onori", "name": "Onondaga River", "state": "New York", "latitude": "", "longitude": "", "notes": "", "place_type": "GN", "alternate": "Onondago"}, {"id": 1748, "id_tei": "ononl", "name": "Onondaga Lake", "state": "New York", "latitude": "", "longitude": "", "notes": "", "place_type": "GN", "alternate": ""}, {"id": 1747, "id_tei": "onocr", "name": "Onondaga Creek", "state": "New York", "latitude": "41.815", "longitude": "76.16387", "notes": "27 Miles long from Vesper, NY to Onondaga Lake, NY", "place_type": "GN", "alternate": ""}, {"id": 1746, "id_tei": "onoco", "name": "Onondaga County", "state": "New York", "latitude": "43.01", "longitude": "76.2", "notes": "", "place_type": "PN", "alternate": ""}, {"id": 1745, "id_tei": "ononc", "name": "Onondaga Castle", "state": "", "latitude": "", "longitude": "", "notes": "", "place_type": "PN", "alternate": ""}, {"id": 1744, "id_tei": "onond", "name": "Onondaga", "state": "New York", "latitude": "42.960215", "longitude": "76.2389", "notes": "", "place_type": "PN", "alternate": ""}, {"id": 1743, "id_tei": "oneidss", "name": "Oneida South Settlement", "state": "", "latitude": "", "longitude": "", "notes": "", "place_type": "PN", "alternate": ""}, {"id": 1742, "id_tei": "oneir", "name": "Oneida River", "state": "New York", "latitude": "", "longitude": "", "notes": "", "place_type": "GN", "alternate": ""}, {"id": 1741, "id_tei": "oneil", "name": "Oneida Lake", "state": "New York", "latitude": "43.2012", "longitude": "75.91553", "notes": "", "place_type": "GN", "alternate": ""}, {"id": 1740, "id_tei": "oneid", "name": "Oneida", "state": "New York", "latitude": "43.0926", "longitude": "75.6513", "notes": "", "place_type": "PN", "alternate": ""}, {"id": 1739, "id_tei": "oneic", "name": "Oneida Castle", "state": "New York", "latitude": "43.0926", "longitude": "75.6513", "notes": "", "place_type": "PN", "alternate": ""}, {"id": 1738, "id_tei": "onecr", "name": "Oneida Creek", "state": "New York", "latitude": "43.164434", "longitude": "75.73742", "notes": "", "place_type": "GN", "alternate": ""}, {"id": 1737, "id_tei": "ofsch", "name": "Old Fort Schuyler", "state": "New York", "latitude": "43.0999", "longitude": "75.216", "notes": "", "place_type": "PN", "alternate": "Utica, Old Fort Schyler"}, {"id": 1736, "id_tei": "oilcr", "name": "Oil Creek", "state": "Pennsylvania", "latitude": "41.7365", "longitude": "41.4411353", "notes": "47 Miles long from Canadohta Lake, PA to Oil City, PA", "place_type": "GN", "alternate": "Oyl Creek"}, {"id": 1735, "id_tei": "ohior", "name": "Ohio River", "state": "", "latitude": "", "longitude": "", "notes": "981 Miles long from Pittsburgh, PA to Cairo, IL", "place_type": "GN", "alternate": "River Ohio"}, {"id": 1734, "id_tei": "ohiof", "name": "Falls of Ohio", "state": "Kentucky", "latitude": "", "longitude": "", "notes": "", "place_type": "GN", "alternate": ""}, {"id": 1733, "id_tei": "ohio", "name": "Ohio         ", "state": "Ohio", "latitude": "", "longitude": "", "notes": "", "place_type": "PN", "alternate": ""}, {"id": 1732, "id_tei": "ocone", "name": "Oconee River", "state": "", "latitude": "", "longitude": "", "notes": "", "place_type": "GN", "alternate": "Ocomic River?"}, {"id": 1731, "id_tei": "oblon", "name": "Oblong", "state": "New York", "latitude": "41.09", "longitude": "73.46", "notes": "", "place_type": "PN", "alternate": ""}, {"id": 1730, "id_tei": "oakor", "name": "Oak Orchard Harbor", "state": "New York", "latitude": "", "longitude": "", "notes": "", "place_type": "PN", "alternate": ""}, {"id": 1729, "id_tei": "novas", "name": "Nova Scotia", "state": "Canada", "latitude": "45", "longitude": "63", "notes": "", "place_type": "PN", "alternate": ""}, {"id": 1728, "id_tei": "notth", "name": "Nottingham", "state": "", "latitude": "", "longitude": "", "notes": "", "place_type": "PN", "alternate": ""}, {"id": 1727, "id_tei": "norw", "name": "Norwich", "state": "", "latitude": "", "longitude": "", "notes": "", "place_type": "PN", "alternate": ""}, {"id": 1726, "id_tei": "northw", "name": "Northwest Terroritory", "state": "", "latitude": "", "longitude": "", "notes": "", "place_type": "PN", "alternate": ""}, {"id": 1725, "id_tei": "north1", "name": "Northumberland", "state": "Pennsylvania", "latitude": "40.5338", "longitude": "76.4746", "notes": "", "place_type": "PN", "alternate": "Northumberland Town"}, {"id": 1724, "id_tei": "north", "name": "Northumberland County", "state": "Pennsylvania", "latitude": "40.85", "longitude": "76.71", "notes": "", "place_type": "PN", "alternate": ""}, {"id": 1723, "id_tei": "nrive", "name": "North River", "state": "New York", "latitude": "41.124884", "longitude": "73.88855", "notes": "Former name for southern part of Hudon River between New York City and New Jersey.", "place_type": "GN", "alternate": ""}, {"id": 1722, "id_tei": "norm", "name": "North Mountains", "state": "", "latitude": "", "longitude": "", "notes": "", "place_type": "GN", "alternate": ""}, {"id": 1721, "id_tei": "ncaro", "name": "", "state": "North Carolina", "latitude": "", "longitude": "", "notes": "", "place_type": "PN", "alternate": ""}, {"id": 1720, "id_tei": "norbm", "name": "North Branch Mountain", "state": "", "latitude": "", "longitude": "", "notes": "", "place_type": "GN", "alternate": ""}, {"id": 1719, "id_tei": "norrist", "name": "Norristown", "state": "", "latitude": "", "longitude": "", "notes": "", "place_type": "PN", "alternate": ""}, {"id": 1718, "id_tei": "norfo", "name": "Norfolk", "state": "England", "latitude": "", "longitude": "", "notes": "", "place_type": "PN", "alternate": ""}, {"id": 1717, "id_tei": "nolan", "name": "Noland's Ferry", "state": "Maryland", "latitude": "", "longitude": "", "notes": "Crosses the Potomac", "place_type": "PN", "alternate": ""}, {"id": 1716, "id_tei": "niagr", "name": "Niagara River", "state": "NY/Canada", "latitude": "43.078943", "longitude": "79.076446", "notes": "", "place_type": "GN", "alternate": ""}, {"id": 1715, "id_tei": "niagf", "name": "Niagara Falls", "state": "NY/Canada", "latitude": "43.078943", "longitude": "79.076446", "notes": "", "place_type": "GN", "alternate": "great Falls"}, {"id": 1714, "id_tei": "niaga", "name": "Niagara", "state": "New York", "latitude": "43.31195", "longitude": "78.747621", "notes": "", "place_type": "PN", "alternate": ""}, {"id": 1713, "id_tei": "niafo", "name": "Niagara Fort", "state": "New York", "latitude": "43.262394", "longitude": "79.063078", "notes": "", "place_type": "PN", "alternate": "Fort Niagara"}, {"id": 1712, "id_tei": "newto2", "name": "Newtown", "state": "New York", "latitude": "41.414112", "longitude": "73.303566", "notes": "", "place_type": "PN", "alternate": "Newtown point"}, {"id": 1711, "id_tei": "newto", "name": "Newton", "state": "New Jersey", "latitude": "41.058153", "longitude": "74.752665", "notes": "", "place_type": "PN", "alternate": "Newtown"}, {"id": 1710, "id_tei": "newpo", "name": "Newport", "state": "Rhode Island", "latitude": "", "longitude": "", "notes": "", "place_type": "PN", "alternate": ""}, {"id": 1709, "id_tei": "newli", "name": "Newlin", "state": "", "latitude": "", "longitude": "", "notes": "", "place_type": "PN", "alternate": ""}, {"id": 1708, "id_tei": "newga", "name": "Newgate", "state": "England", "latitude": "", "longitude": "", "notes": "", "place_type": "PN", "alternate": ""}, {"id": 1707, "id_tei": "newyh", "name": "New York Hospital", "state": "New York", "latitude": "", "longitude": "", "notes": "", "place_type": "PN", "alternate": ""}, {"id": 1706, "id_tei": "newyo", "name": "New York", "state": "New York", "latitude": "40.712784", "longitude": "74.00594", "notes": "", "place_type": "PN", "alternate": ""}, {"id": 1705, "id_tei": "nycit", "name": "New York City", "state": "New York", "latitude": "40.71278", "longitude": "74.00594", "notes": "", "place_type": "PN", "alternate": ""}, {"id": 1704, "id_tei": "nwind", "name": "New Windsor", "state": "New York", "latitude": "41.4767", "longitude": "74.0238", "notes": "", "place_type": "PN", "alternate": "New Winser"}, {"id": 1703, "id_tei": "newst", "name": "New Stockbridge", "state": "", "latitude": "", "longitude": "", "notes": "", "place_type": "PN", "alternate": ""}, {"id": 1702, "id_tei": "newor", "name": "New Orleans", "state": "Louisiana", "latitude": "29.951066", "longitude": "90.071532", "notes": "", "place_type": "PN", "alternate": ""}, {"id": 1701, "id_tei": "newmi", "name": "New Milford", "state": "New Jersey", "latitude": "40.935099", "longitude": "74.19028", "notes": "", "place_type": "PN", "alternate": ""}, {"id": 1700, "id_tei": "newlon", "name": "New London", "state": "? PA? CT?", "latitude": "", "longitude": "", "notes": "", "place_type": "PN", "alternate": ""}, {"id": 1699, "id_tei": "newlan", "name": "New Lancaster", "state": "", "latitude": "", "longitude": "", "notes": "", "place_type": "PN", "alternate": ""}, {"id": 1698, "id_tei": "newje", "name": "New Jersey", "state": "", "latitude": "", "longitude": "", "notes": "", "place_type": "PN", "alternate": ""}, {"id": 1697, "id_tei": "newhv", "name": "New Haven", "state": "Connecticut", "latitude": "", "longitude": "", "notes": "", "place_type": "PN", "alternate": ""}, {"id": 1696, "id_tei": "newha", "name": "New Hartford", "state": "New York", "latitude": "43.073403", "longitude": "75.287666", "notes": "", "place_type": "PN", "alternate": ""}, {"id": 1695, "id_tei": "nhamp", "name": "New Hampshire", "state": "", "latitude": "", "longitude": "", "notes": "", "place_type": "PN", "alternate": "New Hampshier"}, {"id": 1694, "id_tei": "newco", "name": "New Concord", "state": "", "latitude": "", "longitude": "", "notes": "", "place_type": "PN", "alternate": ""}, {"id": 1693, "id_tei": "newcas", "name": "New Castle", "state": "", "latitude": "", "longitude": "", "notes": "", "place_type": "PN", "alternate": "Newcastle"}, {"id": 1692, "id_tei": "newbu", "name": "Newburgh", "state": "New York", "latitude": "41.503427", "longitude": "74.010418", "notes": "", "place_type": "PN", "alternate": ""}, {"id": 1691, "id_tei": "newbr1", "name": "New Britain", "state": "New York", "latitude": "42.467707", "longitude": "73.481409", "notes": "Hamlet of New Lebanon, main home of the Quakers", "place_type": "PN", "alternate": ""}, {"id": 1690, "id_tei": "newbr", "name": "New Brunswick", "state": "Canada", "latitude": "46", "longitude": "66", "notes": "", "place_type": "PN", "alternate": ""}, {"id": 1689, "id_tei": "newbu", "name": "Newbury", "state": "", "latitude": "", "longitude": "", "notes": "", "place_type": "PN", "alternate": ""}, {"id": 1688, "id_tei": "newbe1", "name": "Newberry", "state": "", "latitude": "", "longitude": "", "notes": "", "place_type": "PN", "alternate": ""}, {"id": 1687, "id_tei": "newbe", "name": "Newbegun Creek", "state": "North Carolina", "latitude": "36.216", "longitude": "76.174676", "notes": "", "place_type": "PN", "alternate": ""}, {"id": 1686, "id_tei": "newbd", "name": "New Bedford", "state": "Massachusetts", "latitude": "", "longitude": "", "notes": "", "place_type": "PN", "alternate": ""}, {"id": 1685, "id_tei": "newar", "name": "Newark", "state": "", "latitude": "", "longitude": "", "notes": "", "place_type": "PN", "alternate": ""}, {"id": 1684, "id_tei": "never", "name": "Neversink Mountains", "state": "", "latitude": "", "longitude": "", "notes": "", "place_type": "PN", "alternate": ""}, {"id": 1683, "id_tei": "neosho", "name": "Neosho River", "state": "", "latitude": "", "longitude": "", "notes": "", "place_type": "PN", "alternate": ""}, {"id": 1682, "id_tei": "negm", "name": "Negro Mountain", "state": "", "latitude": "", "longitude": "", "notes": "", "place_type": "GN", "alternate": ""}, {"id": 1681, "id_tei": "ncaro", "name": "North Carolina", "state": "North Carolina", "latitude": "", "longitude": "", "notes": "", "place_type": "PN", "alternate": ""}, {"id": 1680, "id_tei": "nav", "name": "Navy Hall", "state": "Canada", "latitude": "43.252", "longitude": "79.059134", "notes": "", "place_type": "PN", "alternate": ""}, {"id": 1679, "id_tei": "nashv", "name": "Nashville", "state": "", "latitude": "", "longitude": "", "notes": "", "place_type": "PN", "alternate": ""}, {"id": 1678, "id_tei": "narra", "name": "Narragansett", "state": "Rhode Island", "latitude": "41.27", "longitude": "71.2658", "notes": "", "place_type": "PN", "alternate": "Narraganset"}, {"id": 1677, "id_tei": "narro", "name": "the Narrows", "state": "North Carolina", "latitude": "34.753216", "longitude": "76.786047", "notes": "part of the Pasquotank River", "place_type": "GN", "alternate": ""}, {"id": 1676, "id_tei": "naple", "name": "Naples", "state": "Italy", "latitude": "", "longitude": "", "notes": "", "place_type": "PN", "alternate": ""}, {"id": 1675, "id_tei": "musta", "name": "Musselman's Tavern", "state": "New York", "latitude": "", "longitude": "", "notes": "", "place_type": "PN", "alternate": ""}, {"id": 1674, "id_tei": "muskr", "name": "Muskingum River", "state": "Ohio", "latitude": "39.2433", "longitude": "81.2722", "notes": "111 miles long. Runs from Coshocton to Ohio River in Marietta, OH.", "place_type": "GN", "alternate": ""}, {"id": 1673, "id_tei": "muski", "name": "Muskingum", "state": "Ohio", "latitude": "40.054362", "longitude": "82.018915", "notes": "", "place_type": "PN", "alternate": ""}, {"id": 1672, "id_tei": "musco", "name": "Musconetcong River", "state": "New York", "latitude": "40.918641", "longitude": "74.729701", "notes": "46 miles long. Runs from Lake Hopatcong to Riegelsville, PA.", "place_type": "GN", "alternate": "Musconecunch Creek, Muskenecunk"}, {"id": 1671, "id_tei": "munva", "name": "Muncy Valley", "state": "Pennsylvania", "latitude": "41.34258", "longitude": "76.585228", "notes": "", "place_type": "PN", "alternate": ""}, {"id": 1670, "id_tei": "muncy", "name": "Muncy", "state": "Pennsylvania", "latitude": "41.2019", "longitude": "76.7864", "notes": "", "place_type": "PN", "alternate": "Munsey"}, {"id": 1669, "id_tei": "muncr", "name": "Muncy Creek", "state": "Pennsylvania", "latitude": "41.380895", "longitude": "76.421493", "notes": "36 miles long. Runs from Laporte Township to Muncy Creek Township", "place_type": "GN", "alternate": "Munsy Creek"}, {"id": 1668, "id_tei": "mudla", "name": "Mud Lake", "state": "", "latitude": "", "longitude": "", "notes": "", "place_type": "GN", "alternate": ""}, {"id": 1667, "id_tei": "mudcr", "name": "Mudd Creek", "state": "New York", "latitude": "42.9825", "longitude": "77.4089", "notes": "", "place_type": "GN", "alternate": "Mud Creek, Ganargua Creek"}, {"id": 1666, "id_tei": "mtple", "name": "Mt. Pleasant", "state": "", "latitude": "", "longitude": "", "notes": "", "place_type": "PN", "alternate": ""}, {"id": 1665, "id_tei": "mtver", "name": "Mount Vernon", "state": "Virginia?", "latitude": "", "longitude": "", "notes": "", "place_type": "PN", "alternate": ""}, {"id": 1664, "id_tei": "mount1", "name": "Mount Holly", "state": "New Jersey", "latitude": "39.993144", "longitude": "74.787939", "notes": "", "place_type": "PN", "alternate": ""}, {"id": 1663, "id_tei": "mount", "name": "Mount Holly", "state": "Vermont", "latitude": "43.447469", "longitude": "72.825638", "notes": "", "place_type": "PN", "alternate": ""}, {"id": 1662, "id_tei": "morea", "name": "Moreau", "state": "", "latitude": "", "longitude": "", "notes": "General", "place_type": "PN", "alternate": ""}, {"id": 1661, "id_tei": "moore", "name": "Moorestown", "state": "New Jersey", "latitude": "39.968882", "longitude": "74.948886", "notes": "", "place_type": "PN", "alternate": ""}, {"id": 1660, "id_tei": "montr", "name": "Montreal", "state": "Canada", "latitude": "45.501689", "longitude": "73.567256", "notes": "", "place_type": "PN", "alternate": ""}, {"id": 1659, "id_tei": "montg", "name": "Montgomery County", "state": "Maryland", "latitude": "", "longitude": "", "notes": "", "place_type": "PN", "alternate": ""}, {"id": 1658, "id_tei": "monte", "name": "Montezuma Marshes", "state": "New York", "latitude": "", "longitude": "", "notes": "", "place_type": "GN", "alternate": "Cayuga marshes"}, {"id": 1657, "id_tei": "montauk", "name": "Montauk", "state": "New York", "latitude": "", "longitude": "", "notes": "", "place_type": "PN", "alternate": ""}, {"id": 1656, "id_tei": "monon", "name": "Monongahela River", "state": "Pennsylvania", "latitude": "39.953714", "longitude": "79.994451", "notes": "130 miles long, Runs from Tygart Valley River to Pittsburgh, PA.", "place_type": "GN", "alternate": ""}, {"id": 1655, "id_tei": "monong", "name": "Monongahela", "state": "", "latitude": "", "longitude": "", "notes": "", "place_type": "PN", "alternate": ""}, {"id": 1654, "id_tei": "monmo1", "name": "Monmouth County", "state": "New Jersey", "latitude": "40.29", "longitude": "74.15", "notes": "", "place_type": "PN", "alternate": ""}, {"id": 1653, "id_tei": "monmo", "name": "Monmouth", "state": "New Jersey", "latitude": "", "longitude": "", "notes": "", "place_type": "PN", "alternate": ""}, {"id": 1652, "id_tei": "mongu", "name": "Monguagon", "state": "Michigan", "latitude": "", "longitude": "", "notes": "", "place_type": "PN", "alternate": "Mogogam"}, {"id": 1651, "id_tei": "mogua", "name": "Moguago", "state": "", "latitude": "", "longitude": "", "notes": "Wyandot village? Michigan?", "place_type": "PN", "alternate": ""}, {"id": 1650, "id_tei": "mohva", "name": "Mohawk Valley", "state": "New York", "latitude": "", "longitude": "", "notes": "", "place_type": "PN", "alternate": ""}, {"id": 1649, "id_tei": "mohaw", "name": "Mohawk River", "state": "New York", "latitude": "42.954287", "longitude": "74.231358", "notes": "149 miles long from Ava, Oneida County to Hudson River", "place_type": "GN", "alternate": "Mohocks River, Mohock River"}, {"id": 1648, "id_tei": "mojl", "name": "Mohickon-John's Lake", "state": "", "latitude": "", "longitude": "", "notes": "", "place_type": "PN", "alternate": "Mohicken"}, {"id": 1647, "id_tei": "mobil", "name": "Mobile River", "state": "Alabama", "latitude": "", "longitude": "", "notes": "", "place_type": "GN", "alternate": ""}, {"id": 1646, "id_tei": "misso", "name": "Missouri River", "state": "", "latitude": "", "longitude": "", "notes": "", "place_type": "GN", "alternate": ""}, {"id": 1645, "id_tei": "missouri", "name": "Missouri", "state": "", "latitude": "", "longitude": "", "notes": "", "place_type": "PN", "alternate": ""}, {"id": 1644, "id_tei": "missi", "name": "Mississippi River", "state": "", "latitude": "", "longitude": "", "notes": "", "place_type": "GN", "alternate": ""}, {"id": 1643, "id_tei": "misss", "name": "Mississippi (State)", "state": "Mississippi", "latitude": "", "longitude": "", "notes": "", "place_type": "PN", "alternate": ""}, {"id": 1642, "id_tei": "missi1", "name": "Mississinaway", "state": "", "latitude": "", "longitude": "", "notes": "", "place_type": "PN", "alternate": ""}, {"id": 1641, "id_tei": "mingot", "name": "Mingo Town", "state": "", "latitude": "", "longitude": "", "notes": "", "place_type": "PN", "alternate": ""}, {"id": 1640, "id_tei": "milto", "name": "Milton", "state": "Pennsylvania", "latitude": "41.01203", "longitude": "76.847741", "notes": "", "place_type": "PN", "alternate": ""}, {"id": 1639, "id_tei": "mille", "name": "Miller's Tavern", "state": "Pennsylvania", "latitude": "", "longitude": "", "notes": "near Cattawessy", "place_type": "PN", "alternate": ""}, {"id": 1638, "id_tei": "milfh", "name": "Milford Haven", "state": "England", "latitude": "", "longitude": "", "notes": "", "place_type": "PN", "alternate": ""}, {"id": 1637, "id_tei": "milee", "name": "Mile-end", "state": "England", "latitude": "", "longitude": "", "notes": "", "place_type": "PN", "alternate": ""}, {"id": 1636, "id_tei": "mifer", "name": "Michel's Ferry", "state": "", "latitude": "", "longitude": "", "notes": "", "place_type": "PN", "alternate": ""}, {"id": 1635, "id_tei": "middl", "name": "Middletown", "state": "Pennsylvania", "latitude": "40.199814", "longitude": "76.731081", "notes": "", "place_type": "PN", "alternate": ""}, {"id": 1634, "id_tei": "midse", "name": "Middlesex", "state": "England", "latitude": "", "longitude": "", "notes": "", "place_type": "PN", "alternate": ""}, {"id": 1633, "id_tei": "midsi", "name": "Middle Sister Island", "state": "", "latitude": "", "longitude": "", "notes": "", "place_type": "PN", "alternate": ""}, {"id": 1632, "id_tei": "middi", "name": "Middle Island", "state": "", "latitude": "", "longitude": "", "notes": "", "place_type": "PN", "alternate": ""}, {"id": 1631, "id_tei": "midbi", "name": "Middle Bass Island", "state": "", "latitude": "", "longitude": "", "notes": "", "place_type": "PN", "alternate": ""}, {"id": 1630, "id_tei": "michi", "name": "Michilimackinac", "state": "Michigan", "latitude": "45.786676", "longitude": "84.733656", "notes": "", "place_type": "PN", "alternate": "Michillamackanac, Mackinac, Mackinaw, Mackinoy, McInoi, Michillimackanack"}, {"id": 1629, "id_tei": "michi1", "name": "Michigan", "state": "", "latitude": "", "longitude": "", "notes": "", "place_type": "PN", "alternate": ""}, {"id": 1628, "id_tei": "miamr1", "name": "Miami rapids", "state": "Ohio", "latitude": "41.1715", "longitude": "84.2125", "notes": "", "place_type": "GN", "alternate": ""}, {"id": 1627, "id_tei": "miamr", "name": "Miami River", "state": "Ohio", "latitude": "39.730954", "longitude": "87.219282", "notes": "", "place_type": "GN", "alternate": "Great Miami River, Big Miami, Miami of the Lake"}, {"id": 1626, "id_tei": "miamr", "name": "Miami River", "state": "New York", "latitude": "43.588643", "longitude": "74.489684", "notes": "", "place_type": "GN", "alternate": ""}, {"id": 1625, "id_tei": "merri", "name": "Merrimack County", "state": "New Hampshire", "latitude": "", "longitude": "", "notes": "", "place_type": "PN", "alternate": "Merimack"}, {"id": 1624, "id_tei": "merio", "name": "Merion", "state": "Pennsylvania?", "latitude": "", "longitude": "", "notes": "", "place_type": "PN", "alternate": ""}, {"id": 1623, "id_tei": "menal", "name": "Menallen", "state": "Pennsylvania", "latitude": "", "longitude": "", "notes": "", "place_type": "PN", "alternate": "Monallen"}, {"id": 1622, "id_tei": "maume", "name": "Maumee Bay", "state": "Ohio", "latitude": "", "longitude": "", "notes": "", "place_type": "GN", "alternate": "Miami Bay"}, {"id": 1621, "id_tei": "mattr", "name": "Mattaponi River", "state": "", "latitude": "", "longitude": "", "notes": "", "place_type": "PN", "alternate": "Mattapony"}, {"id": 1620, "id_tei": "mass", "name": "Massachusetts ", "state": "", "latitude": "", "longitude": "", "notes": "", "place_type": "PN", "alternate": ""}, {"id": 1619, "id_tei": "mason", "name": "Mason's Island", "state": "", "latitude": "", "longitude": "", "notes": "near Georgetown", "place_type": "PN", "alternate": ""}, {"id": 1618, "id_tei": "maryl", "name": "Maryland", "state": "Maryland", "latitude": "", "longitude": "", "notes": "", "place_type": "PN", "alternate": ""}, {"id": 1617, "id_tei": "marlb", "name": "Marlborough", "state": "New York", "latitude": "41.6055", "longitude": "73.9723", "notes": "", "place_type": "PN", "alternate": "New-malborough"}, {"id": 1616, "id_tei": "mancr", "name": "Mango Creek", "state": "", "latitude": "", "longitude": "", "notes": "", "place_type": "GN", "alternate": ""}, {"id": 1615, "id_tei": "manch1", "name": "Manchester", "state": "Virginia?", "latitude": "", "longitude": "", "notes": "near Richmond", "place_type": "PN", "alternate": ""}, {"id": 1614, "id_tei": "manch", "name": "Manchester", "state": "England", "latitude": "", "longitude": "", "notes": "", "place_type": "PN", "alternate": ""}, {"id": 1613, "id_tei": "manc", "name": "Manchester", "state": "", "latitude": "", "longitude": "", "notes": "", "place_type": "PN", "alternate": ""}, {"id": 1612, "id_tei": "mamar", "name": "Mamaroneck", "state": "New York", "latitude": "", "longitude": "", "notes": "", "place_type": "PN", "alternate": "Marmaronik"}, {"id": 1611, "id_tei": "mald", "name": "Malden", "state": "", "latitude": "", "longitude": "", "notes": "", "place_type": "PN", "alternate": ""}, {"id": 1610, "id_tei": "makef", "name": "Makefield", "state": "Pennsylvania", "latitude": "40.212007", "longitude": "74.821867", "notes": "", "place_type": "PN", "alternate": ""}, {"id": 1609, "id_tei": "maine", "name": "Maine", "state": "Maine", "latitude": "", "longitude": "", "notes": "", "place_type": "PN", "alternate": ""}, {"id": 1608, "id_tei": "maide", "name": "Maiden Creek", "state": "Pennsylvania", "latitude": "40.43937", "longitude": "75.927544", "notes": "", "place_type": "PN", "alternate": ""}, {"id": 1607, "id_tei": "maho", "name": "Mahoning", "state": "", "latitude": "", "longitude": "", "notes": "\"branch of the Big Beaver\"", "place_type": "GN", "alternate": ""}, {"id": 1606, "id_tei": "mahmo", "name": "Mahantongo Mountain", "state": "Pennsylvania", "latitude": "40.629", "longitude": "76.813859", "notes": "", "place_type": "GN", "alternate": "Magantango mountain"}, {"id": 1605, "id_tei": "mahat", "name": "Mahantongo Creek", "state": "Pennsylvania", "latitude": "40.643722", "longitude": "76.782975", "notes": "36 miles long from Dauphin to Millersburg", "place_type": "GN", "alternate": ""}, {"id": 1604, "id_tei": "mahan", "name": "Mahanoy Mountain", "state": "Pennsylvania", "latitude": "4.777389", "longitude": "76.445704", "notes": "", "place_type": "GN", "alternate": "Mahony Mountain"}, {"id": 1603, "id_tei": "mahac", "name": "Mahanoy Creek", "state": "Pennsylvania", "latitude": "40.725779", "longitude": "76.794004", "notes": "52 miles long from Mahanoy Township to Jackson Township", "place_type": "GN", "alternate": "Mahony Creek"}, {"id": 1602, "id_tei": "magua", "name": "Maguaga", "state": "", "latitude": "", "longitude": "", "notes": "", "place_type": "PN", "alternate": ""}, {"id": 1601, "id_tei": "madr", "name": "Mad River", "state": "Ohio", "latitude": "", "longitude": "", "notes": "Part of Miami", "place_type": "GN", "alternate": ""}, {"id": 1600, "id_tei": "madco", "name": "Madison County", "state": "", "latitude": "", "longitude": "", "notes": "", "place_type": "PN", "alternate": ""}, {"id": 1599, "id_tei": "mackr", "name": "Mackinac River", "state": "Michigan", "latitude": "", "longitude": "", "notes": "", "place_type": "GN", "alternate": "Mackinoy, McInoi"}, {"id": 1598, "id_tei": "mackin", "name": "Mackinoy", "state": "", "latitude": "", "longitude": "", "notes": "", "place_type": "PN", "alternate": ""}, {"id": 1597, "id_tei": "macki", "name": "Mackinaw", "state": "", "latitude": "", "longitude": "", "notes": "", "place_type": "PN", "alternate": ""}, {"id": 1596, "id_tei": "machi", "name": "Machias", "state": "Maine", "latitude": "44.715079", "longitude": "67.461376", "notes": "", "place_type": "PN", "alternate": ""}, {"id": 1595, "id_tei": "lynn", "name": "Lynn", "state": "", "latitude": "", "longitude": "", "notes": "", "place_type": "PN", "alternate": ""}, {"id": 1594, "id_tei": "lymin", "name": "Lymington", "state": "England", "latitude": "", "longitude": "", "notes": "", "place_type": "PN", "alternate": ""}, {"id": 1593, "id_tei": "lycom1", "name": "Lycoming County", "state": "Pennsylvania", "latitude": "41.35", "longitude": "77.06", "notes": "", "place_type": "PN", "alternate": ""}, {"id": 1592, "id_tei": "lycom", "name": "Lycoming", "state": "Pennsylvania", "latitude": "41.245603", "longitude": "77.047108", "notes": "37 miles long from McNett Township to Williamsport", "place_type": "GN", "alternate": "Lycoming Creek"}, {"id": 1591, "id_tei": "ludl", "name": "Ludlow", "state": "", "latitude": "", "longitude": "", "notes": "", "place_type": "PN", "alternate": ""}, {"id": 1590, "id_tei": "loyal", "name": "Loyalsock", "state": "Pennsylvania", "latitude": "41.251115", "longitude": "76.972031", "notes": "", "place_type": "PN", "alternate": ""}, {"id": 1589, "id_tei": "loyac", "name": "Loyalsock Creek", "state": "Pennsylvania", "latitude": "41.465251", "longitude": "76.241971", "notes": "", "place_type": "GN", "alternate": ""}, {"id": 1588, "id_tei": "louis", "name": "Louisiana", "state": "Louisiana", "latitude": "", "longitude": "", "notes": "", "place_type": "PN", "alternate": ""}, {"id": 1587, "id_tei": "lostc", "name": "Lost Creek", "state": "", "latitude": "", "longitude": "", "notes": "Stream of the Great Miami", "place_type": "PN", "alternate": ""}, {"id": 1586, "id_tei": "lorac", "name": "Loramier's Creek", "state": "", "latitude": "", "longitude": "", "notes": "", "place_type": "GN", "alternate": ""}, {"id": 1585, "id_tei": "longp", "name": "Long Point", "state": "New York", "latitude": "", "longitude": "", "notes": "", "place_type": "PN", "alternate": ""}, {"id": 1584, "id_tei": "longi", "name": "Long Island", "state": "New York", "latitude": "40.789142", "longitude": "73.13496", "notes": "", "place_type": "PN", "alternate": ""}, {"id": 1583, "id_tei": "lond", "name": "London", "state": "England", "latitude": "", "longitude": "", "notes": "", "place_type": "PN", "alternate": ""}, {"id": 1582, "id_tei": "loiqc", "name": "Loiquoit Creek", "state": "", "latitude": "", "longitude": "", "notes": "", "place_type": "PN", "alternate": ""}, {"id": 1581, "id_tei": "liver", "name": "Liverpool", "state": "England", "latitude": "", "longitude": "", "notes": "", "place_type": "GN", "alternate": ""}, {"id": 1580, "id_tei": "lyork", "name": "Little York", "state": "New Jersey", "latitude": "40.611093", "longitude": "75.076605", "notes": "There is also a Little York in Ohio.", "place_type": "PN", "alternate": ""}, {"id": 1579, "id_tei": "lvall", "name": "Little Valley", "state": "", "latitude": "", "longitude": "", "notes": "", "place_type": "GN", "alternate": ""}, {"id": 1578, "id_tei": "lturtown", "name": "Little Turtle's Town", "state": "Indiana", "latitude": "", "longitude": "", "notes": "\"about 18 miles north of Dennis' Station\", Turtletown?", "place_type": "PN", "alternate": ""}, {"id": 1577, "id_tei": "lsodu", "name": "Little Sodus", "state": "New York", "latitude": "", "longitude": "", "notes": "", "place_type": "PN", "alternate": ""}, {"id": 1576, "id_tei": "little", "name": "Little River", "state": "North Carolina", "latitude": "36.199923", "longitude": "76.458149", "notes": "Pasquotank County", "place_type": "GN", "alternate": ""}, {"id": 1575, "id_tei": "lnine", "name": "Little Nine Partners", "state": "New York", "latitude": "41.979814", "longitude": "73.65596", "notes": "", "place_type": "PN", "alternate": ""}, {"id": 1574, "id_tei": "lmoun", "name": "Little Mountain", "state": "Pennsylvania", "latitude": "41.071368", "longitude": "77.055101", "notes": "", "place_type": "GN", "alternate": ""}, {"id": 1573, "id_tei": "littlemr", "name": "Little Miami River", "state": "", "latitude": "", "longitude": "", "notes": "", "place_type": "PN", "alternate": ""}, {"id": 1572, "id_tei": "llake", "name": "Little Lake", "state": "", "latitude": "", "longitude": "", "notes": "", "place_type": "PN", "alternate": ""}, {"id": 1571, "id_tei": "lfish", "name": "Little Fishing Creek", "state": "Pennsylvania", "latitude": "40.893362", "longitude": "77.653695", "notes": "", "place_type": "GN", "alternate": ""}, {"id": 1570, "id_tei": "lfall", "name": "Little Falls", "state": "New York", "latitude": "", "longitude": "", "notes": "", "place_type": "PN", "alternate": ""}, {"id": 1569, "id_tei": "lcross", "name": "Little Crossings", "state": "", "latitude": "", "longitude": "", "notes": "Branch of Youghiogheny river", "place_type": "GN", "alternate": ""}, {"id": 1568, "id_tei": "lconn", "name": "Little Connestoga Valley", "state": "Pennsylvania", "latitude": "40.061765", "longitude": "76.25804", "notes": "", "place_type": "PN", "alternate": ""}, {"id": 1567, "id_tei": "lcone", "name": "Little Conestoga Creek", "state": "Pennsylvania", "latitude": "40.048453", "longitude": "76.343424", "notes": "", "place_type": "GN", "alternate": "Little Connostoga"}, {"id": 1566, "id_tei": "lcacr", "name": "Little Cacapon river", "state": "", "latitude": "", "longitude": "", "notes": "", "place_type": "GN", "alternate": "Capon"}, {"id": 1565, "id_tei": "lcacm", "name": "Little Cacapon Mountain", "state": "", "latitude": "", "longitude": "", "notes": "", "place_type": "GN", "alternate": "Capon"}, {"id": 1564, "id_tei": "lisbo", "name": "Lisbon", "state": "Portugal", "latitude": "", "longitude": "", "notes": "", "place_type": "PN", "alternate": ""}, {"id": 1563, "id_tei": "linds", "name": "Lindsley's", "state": "", "latitude": "", "longitude": "", "notes": "tavern", "place_type": "PN", "alternate": ""}, {"id": 1562, "id_tei": "lickc", "name": "Licking Creek", "state": "", "latitude": "", "longitude": "", "notes": "", "place_type": "PN", "alternate": ""}, {"id": 1561, "id_tei": "lewis", "name": "Lewistown", "state": "Pennsylvania", "latitude": "", "longitude": "", "notes": "", "place_type": "PN", "alternate": ""}, {"id": 1560, "id_tei": "leray", "name": "Leray", "state": "", "latitude": "", "longitude": "", "notes": "", "place_type": "PN", "alternate": ""}, {"id": 1559, "id_tei": "leice", "name": "Leicester", "state": "England", "latitude": "", "longitude": "", "notes": "", "place_type": "PN", "alternate": ""}, {"id": 1558, "id_tei": "lehig", "name": "Lehigh River", "state": "Pennsylvania", "latitude": "", "longitude": "", "notes": "", "place_type": "PN", "alternate": ""}, {"id": 1557, "id_tei": "leec", "name": "Lee's Creek", "state": "", "latitude": "", "longitude": "", "notes": "", "place_type": "PN", "alternate": ""}, {"id": 1556, "id_tei": "ledin", "name": "Ledingburg's", "state": "", "latitude": "", "longitude": "", "notes": "Dutch tavern", "place_type": "PN", "alternate": ""},